[{"name":"Chatsworth, California","label":"Chatsworth","cat2":"Amtrak Stations","cat1":"Transportation","cat3":" ","organizati":"National Transportation Atlas Database (NTAD) 2009 & LA County","addrln1":"10040 Old Depot Plaza Road","addrln2":" ","city":"Chatsworth","state":"CA","zip":"91311","source":"HSIP Freedom AmtrakStation","source_id":"CWT","source_dat":"11\/1\/2010","display":"Y","last_updat":"12\/30\/1899 0:00:00","Latitude":34.25711314,"Longitude":-118.59871974},{"name":"Glendale, California","label":"Glendale","cat2":"Amtrak Stations","cat1":"Transportation","cat3":" ","organizati":"National Transportation Atlas Database (NTAD) 2009 & LA County","addrln1":"400 West Cerritos Avenue","addrln2":"Glendale Transportation Center","city":"Glendale","state":"CA","zip":"91204","source":"HSIP Freedom AmtrakStation","source_id":"GDL","source_dat":"11\/1\/2010","display":"Y","last_updat":"12\/30\/1899 0:00:00","Latitude":34.12363314,"Longitude":-118.25794481},{"name":"Long Beach, California","label":"Long Beach","cat2":"Amtrak Stations","cat1":"Transportation","cat3":" ","organizati":"National Transportation Atlas Database (NTAD) 2009 & LA County","addrln1":"601 North Long Beach Blvd.","addrln2":"Denny'S Restaurant","city":"Long Beach","state":"CA","zip":"90802-1323","source":"HSIP Freedom AmtrakStation","source_id":"LBC","source_dat":"11\/1\/2010","display":"Y","last_updat":"12\/30\/1899 0:00:00","Latitude":33.77417317,"Longitude":-118.18854784},{"name":"Long Beach (Queen Mary), California","label":"Long Beach (Queen Mary)","cat2":"Amtrak Stations","cat1":"Transportation","cat3":" ","organizati":"National Transportation Atlas Database (NTAD) 2009 & LA County","addrln1":"1146 Queens Highway","addrln2":"Next To The Seasonal Catalina Ferry Terminal","city":"Long Beach","state":"CA","zip":"90802-6331","source":"HSIP Freedom AmtrakStation","source_id":"LBQ","source_dat":"11\/1\/2010","display":"Y","last_updat":"12\/30\/1899 0:00:00","Latitude":33.75029524,"Longitude":-118.18940655},{"name":"La Crescenta, California","label":"La Crescenta","cat2":"Amtrak Stations","cat1":"Transportation","cat3":" ","organizati":"National Transportation Atlas Database (NTAD) 2009 & LA County","addrln1":"Honolulu & Lowell Avenue","addrln2":"Near I-210","city":"La Crescenta","state":"CA","zip":"91214","source":"HSIP Freedom AmtrakStation","source_id":"LCA","source_dat":"11\/1\/2010","display":"Y","last_updat":"12\/30\/1899 0:00:00","Latitude":34.23068113,"Longitude":-118.26531479},{"name":"Lancaster, California","label":"Lancaster","cat2":"Amtrak Stations","cat1":"Transportation","cat3":" ","organizati":"National Transportation Atlas Database (NTAD) 2009 & LA County","addrln1":"44812 Sierra Highway","addrln2":"Metrolink Station","city":"Lancaster","state":"CA","zip":"93534-3218","source":"HSIP Freedom AmtrakStation","source_id":"LCS","source_dat":"11\/1\/2010","display":"Y","last_updat":"12\/30\/1899 0:00:00","Latitude":34.69550607,"Longitude":-118.13616478},{"name":"Littlerock, California","label":"Littlerock","cat2":"Amtrak Stations","cat1":"Transportation","cat3":" ","organizati":"National Transportation Atlas Database (NTAD) 2009 & LA County","addrln1":"7715 Pearblossom Hwy","addrln2":"Come & Save Market","city":"Littlerock","state":"CA","zip":"93543-3038","source":"HSIP Freedom AmtrakStation","source_id":"LTR","source_dat":"11\/1\/2010","display":"Y","last_updat":"12\/30\/1899 0:00:00","Latitude":34.52158217,"Longitude":-117.99192292},{"name":"Burbank (Airport), California","label":"Burbank Airport","cat2":"Amtrak Stations","cat1":"Transportation","cat3":" ","organizati":"National Transportation Atlas Database (NTAD) 2009 & LA County","addrln1":"3750 Empire Avenue","addrln2":" ","city":"Burbank","state":"CA","zip":"91505","source":"HSIP Freedom AmtrakStation","source_id":"BUR","source_dat":"11\/1\/2010","display":"Y","last_updat":"12\/30\/1899 0:00:00","Latitude":34.19382713,"Longitude":-118.35589878},{"name":"Claremont, California","label":"Claremont","cat2":"Amtrak Stations","cat1":"Transportation","cat3":" ","organizati":"National Transportation Atlas Database (NTAD) 2009 & LA County","addrln1":"200 West First St.","addrln2":"Metrolink Station","city":"Claremont","state":"CA","zip":"91711","source":"HSIP Freedom AmtrakStation","source_id":"CLM","source_dat":"11\/1\/2010","display":"Y","last_updat":"12\/30\/1899 0:00:00","Latitude":34.09452311,"Longitude":-117.7154959},{"name":"Santa Clarita-Newhall, California","label":"Santa Clarita-Newhall","cat2":"Amtrak Stations","cat1":"Transportation","cat3":" ","organizati":"National Transportation Atlas Database (NTAD) 2009 & LA County","addrln1":"24300 Railroad Avenue","addrln2":"Metrolink Station","city":"Santa Clarita","state":"CA","zip":"91321-0000","source":"HSIP Freedom AmtrakStation","source_id":"NHL","source_dat":"11\/1\/2010","display":"Y","last_updat":"12\/30\/1899 0:00:00","Latitude":34.37898007,"Longitude":-118.52674004},{"name":"Pasadena, California","label":"Pasadena","cat2":"Amtrak Stations","cat1":"Transportation","cat3":" ","organizati":"National Transportation Atlas Database (NTAD) 2009 & LA County","addrln1":"150 South Los Robles Ave.","addrln2":"Pasadena Hilton Hotel","city":"Pasadena","state":"CA","zip":"91101-2441","source":"HSIP Freedom AmtrakStation","source_id":"PAS","source_dat":"11\/1\/2010","display":"Y","last_updat":"12\/30\/1899 0:00:00","Latitude":34.14332513,"Longitude":-118.14041482},{"name":"Palmdale (Amtrak Thruway), California","label":"Palmdale (Amtrak Thruway)","cat2":"Amtrak Stations","cat1":"Transportation","cat3":" ","organizati":"National Transportation Atlas Database (NTAD) 2009 & LA County","addrln1":"39000 Clock Tower Plaza Drive - Bus Bay 2E","addrln2":"Palmdale Transportation Center-San Joaquin Buses","city":"Palmdale","state":"CA","zip":"93550-4513","source":"HSIP Freedom AmtrakStation","source_id":"PMD","source_dat":"11\/1\/2010","display":"Y","last_updat":"12\/30\/1899 0:00:00","Latitude":34.57913908,"Longitude":-118.12788679},{"name":"Pomona (Sunset Ltd), California","label":"Pomona (Sunset Ltd)","cat2":"Amtrak Stations","cat1":"Transportation","cat3":" ","organizati":"National Transportation Atlas Database (NTAD) 2009 & LA County","addrln1":"100 West Commercial Street","addrln2":" ","city":"Pomona","state":"CA","zip":"91768","source":"HSIP Freedom AmtrakStation","source_id":"POS","source_dat":"11\/1\/2010","display":"Y","last_updat":"12\/30\/1899 0:00:00","Latitude":34.05939012,"Longitude":-117.7506209},{"name":"San Pedro (Catalina Terminal), California","label":"San Pedro (Catalina Terminal)","cat2":"Amtrak Stations","cat1":"Transportation","cat3":" ","organizati":"National Transportation Atlas Database (NTAD) 2009 & LA County","addrln1":"1St Stop:  N.Front & Swinford, Berth 95, Catalina","addrln2":"Catalina Terminal (Air And Sea)","city":"San Pedro","state":"CA","zip":"90731","source":"HSIP Freedom AmtrakStation","source_id":"SPD","source_dat":"5\/13\/2011","display":"Y","last_updat":"12\/30\/1899 0:00:00","Latitude":33.74841218,"Longitude":-118.27659183},{"name":"San Pedro (Downtown), California","label":"San Pedro (Downtown)","cat2":"Amtrak Stations","cat1":"Transportation","cat3":" ","organizati":"National Transportation Atlas Database (NTAD) 2009 & LA County","addrln1":"931 S. Gaffey St.","addrln2":" ","city":"San Pedro","state":"CA","zip":"90731","source":"HSIP Freedom AmtrakStation","source_id":"SPO","source_dat":"11\/1\/2010","display":"Y","last_updat":"12\/30\/1899 0:00:00","Latitude":33.73594969,"Longitude":-118.29249263},{"name":"Van Nuys (Amtrak), California","label":"Van Nuys","cat2":"Amtrak Stations","cat1":"Transportation","cat3":" ","organizati":"National Transportation Atlas Database (NTAD) 2009 & LA County","addrln1":"7724 Van Nuys Blvd.","addrln2":" ","city":"Van Nuys","state":"CA","zip":"91405","source":"HSIP Freedom AmtrakStation","source_id":"VNC","source_dat":"11\/1\/2010","display":"Y","last_updat":"12\/30\/1899 0:00:00","Latitude":34.21097414,"Longitude":-118.44790977},{"name":"Van Nuys (Flyaway), California","label":"Van Nuys (Flyaway)","cat2":"Amtrak Stations","cat1":"Transportation","cat3":" ","organizati":"National Transportation Atlas Database (NTAD) 2009 & LA County","addrln1":"7610 Woodley Ave.","addrln2":"Van Nuys Airport Flyaway Terminal","city":"Van Nuys","state":"CA","zip":"91406-1728","source":"HSIP Freedom AmtrakStation","source_id":"VNF","source_dat":"11\/1\/2010","display":"Y","last_updat":"12\/30\/1899 0:00:00","Latitude":34.20846414,"Longitude":-118.48282176},{"name":"Union Station","label":"Union Station","cat2":"Amtrak Stations","cat1":"Transportation","cat3":" ","organizati":"LA County","addrln1":"800 N. Alameda St.","addrln2":" ","city":"Los Angeles","state":"CA","zip":"90012","source":"Metropolitan Transportation Authority (MTA)","source_id":"1054069001","source_dat":"6\/4\/2013","display":"Y","last_updat":"12\/30\/1899 0:00:00","Latitude":34.05605013,"Longitude":-118.23642823},{"name":"Foothill Presbyterian Hospital","label":"Foothill Presbyterian Hospital","cat2":"Heliports","cat1":"Transportation","cat3":" ","organizati":"LA County","addrln1":"250 South Grand Avenue","addrln2":" ","city":"Glendora","state":"CA","zip":"91741","source":"HSIP Freedom Gnis_structures","source_id":"3179362","source_dat":"2020-07-14 23:24:43","display":"Y","last_updat":"12\/30\/1899 0:00:00","Latitude":34.13287981,"Longitude":-117.87130727},{"name":"Henry Mayo Newhall Memorial Hospital","label":"Henry Mayo Newhall Memorial Hospital","cat2":"Heliports","cat1":"Transportation","cat3":" ","organizati":" ","addrln1":"23845 W. McBean Pkwy.","addrln2":" ","city":"Valencia","state":"CA","zip":"91355","source":"211","source_id":"3186500","source_dat":"2020-07-14 23:13:50","display":"Y","last_updat":"12\/30\/1899 0:00:00","Latitude":34.42130152,"Longitude":-118.56312227},{"name":"Northridge Hospital Medical Center","label":"Northridge Hospital Medical Center","cat2":"Heliports","cat1":"Transportation","cat3":" ","organizati":"US Geological Survey (USGS) & LA County","addrln1":"18300 Roscoe Blvd.","addrln2":" ","city":"Northridge","state":"CA","zip":"91328","source":"HSIP Freedom Airports_Heliports","source_id":"3186502","source_dat":"2020-07-14 23:14:58","display":"Y","last_updat":"12\/30\/1899 0:00:00","Latitude":34.22034256,"Longitude":-118.53298214},{"name":"Vincent Substation","label":"Vincent Substation","cat2":"Heliports","cat1":"Transportation","cat3":" ","organizati":"US Geological Survey (USGS) & LA County","addrln1":" ","addrln2":" ","city":"Acton","state":"CA","zip":"93550","source":"HSIP Freedom Airports_Heliports","source_id":"3298734","source_dat":"2020-07-14 23:14:51","display":"Y","last_updat":"12\/30\/1899 0:00:00","Latitude":34.48609981,"Longitude":-118.1158934},{"name":"Camp 11 Heliport","label":"Camp 11 Heliport","cat2":"Heliports","cat1":"Transportation","cat3":" ","organizati":"US Geological Survey (USGS) & LA County","addrln1":" ","addrln2":" ","city":"Agua Dulce","state":"CA","zip":"91350","source":"HSIP Freedom Airports_Heliports","source_id":"3298735","source_dat":"2020-07-14 23:14:51","display":"Y","last_updat":"12\/30\/1899 0:00:00","Latitude":34.43832343,"Longitude":-118.28756587},{"name":"Santa Fe International Corp Heliport","label":"Santa Fe International Corp Heliport","cat2":"Heliports","cat1":"Transportation","cat3":" ","organizati":"US Geological Survey (USGS) & LA County","addrln1":" ","addrln2":" ","city":"Alhambra","state":"CA","zip":"91802","source":"HSIP Freedom Airports_Heliports","source_id":"3298736","source_dat":"2020-07-14 23:14:52","display":"Y","last_updat":"12\/30\/1899 0:00:00","Latitude":34.0808382,"Longitude":-118.14922473},{"name":"Sce Energy Control Center","label":"Sce Energy Control Center","cat2":"Heliports","cat1":"Transportation","cat3":" ","organizati":"US Geological Survey (USGS) & LA County","addrln1":" ","addrln2":" ","city":"Alhambra","state":"CA","zip":"91801","source":"HSIP Freedom Airports_Heliports","source_id":"3298737","source_dat":"2020-07-14 23:14:52","display":"Y","last_updat":"12\/30\/1899 0:00:00","Latitude":34.08389374,"Longitude":-118.14450283},{"name":"St Joseph Medical Center","label":"St Joseph Medical Center","cat2":"Heliports","cat1":"Transportation","cat3":" ","organizati":"US Geological Survey (USGS) & LA County","addrln1":" ","addrln2":" ","city":"Burbank","state":"CA","zip":"91505","source":"HSIP Freedom Airports_Heliports","source_id":"3298738","source_dat":"2020-07-14 23:14:52","display":"Y","last_updat":"12\/30\/1899 0:00:00","Latitude":34.15555736,"Longitude":-118.32895419},{"name":"Nbc-Tv","label":"Nbc-Tv","cat2":"Heliports","cat1":"Transportation","cat3":" ","organizati":"US Geological Survey (USGS) & LA County","addrln1":" ","addrln2":" ","city":"Burbank","state":"CA","zip":"91523","source":"HSIP Freedom Airports_Heliports","source_id":"3298739","source_dat":"2020-07-14 23:14:52","display":"Y","last_updat":"12\/30\/1899 0:00:00","Latitude":34.15361292,"Longitude":-118.33145449},{"name":"Station 125","label":"Station 125","cat2":"Heliports","cat1":"Transportation","cat3":" ","organizati":"US Geological Survey (USGS) & LA County","addrln1":" ","addrln2":" ","city":"Calabasas","state":"CA","zip":"91302","source":"HSIP Freedom Airports_Heliports","source_id":"3298740","source_dat":"2020-07-14 23:14:52","display":"Y","last_updat":"12\/30\/1899 0:00:00","Latitude":34.15027822,"Longitude":-118.69813133},{"name":"Lost Hills Sheriff'S Station","label":"Lost Hills Sheriff'S Station","cat2":"Heliports","cat1":"Transportation","cat3":" ","organizati":"US Geological Survey (USGS) & LA County","addrln1":" ","addrln2":" ","city":"Calabasas","state":"CA","zip":"91754","source":"HSIP Freedom Airports_Heliports","source_id":"3298741","source_dat":"2020-07-14 23:14:52","display":"Y","last_updat":"12\/30\/1899 0:00:00","Latitude":34.13777294,"Longitude":-118.71443213},{"name":"Hughes-Canoga Park Heliport","label":"Hughes-Canoga Park Heliport","cat2":"Heliports","cat1":"Transportation","cat3":" ","organizati":"US Geological Survey (USGS) & LA County","addrln1":" ","addrln2":" ","city":"Canoga Park","state":"CA","zip":"91409","source":"HSIP Freedom Airports_Heliports","source_id":"3298742","source_dat":"2020-07-14 23:14:52","display":"Y","last_updat":"12\/30\/1899 0:00:00","Latitude":34.23749876,"Longitude":-118.62590943},{"name":"Boeing De Soto","label":"Boeing De Soto","cat2":"Heliports","cat1":"Transportation","cat3":" ","organizati":"US Geological Survey (USGS) & LA County","addrln1":" ","addrln2":" ","city":"Canoga Park","state":"CA","zip":"90807","source":"HSIP Freedom Airports_Heliports","source_id":"3298743","source_dat":"2020-07-14 23:14:52","display":"Y","last_updat":"12\/30\/1899 0:00:00","Latitude":34.23472097,"Longitude":-118.58535214},{"name":"Carson Sheriff Station Heliport","label":"Carson Sheriff Station Heliport","cat2":"Heliports","cat1":"Transportation","cat3":" ","organizati":"US Geological Survey (USGS) & LA County","addrln1":" ","addrln2":" ","city":"Carson","state":"CA","zip":"90012","source":"HSIP Freedom Airports_Heliports","source_id":"3298744","source_dat":"2020-07-14 23:14:52","display":"Y","last_updat":"12\/30\/1899 0:00:00","Latitude":33.83417878,"Longitude":-118.26172563},{"name":"Castaic Dam","label":"Castaic Dam","cat2":"Heliports","cat1":"Transportation","cat3":" ","organizati":"US Geological Survey (USGS) & LA County","addrln1":" ","addrln2":" ","city":"Castaic","state":"CA","zip":"91310","source":"HSIP Freedom Airports_Heliports","source_id":"3298745","source_dat":"2020-07-14 23:14:52","display":"Y","last_updat":"12\/30\/1899 0:00:00","Latitude":34.51721733,"Longitude":-118.59943211},{"name":"Los Angeles Times-Northridge Heliport","label":"Los Angeles Times-Northridge Heliport","cat2":"Heliports","cat1":"Transportation","cat3":" ","organizati":"US Geological Survey (USGS) & LA County","addrln1":" ","addrln2":" ","city":"Chatsworth","state":"CA","zip":"90053","source":"HSIP Freedom Airports_Heliports","source_id":"3298746","source_dat":"2020-07-14 23:14:52","display":"Y","last_updat":"12\/30\/1899 0:00:00","Latitude":34.23888736,"Longitude":-118.56924084},{"name":"Great Western Helistop","label":"Great Western Helistop","cat2":"Heliports","cat1":"Transportation","cat3":" ","organizati":"US Geological Survey (USGS) & LA County","addrln1":" ","addrln2":" ","city":"Chatsworth","state":"CA","zip":"91324","source":"HSIP Freedom Airports_Heliports","source_id":"3298747","source_dat":"2020-07-14 23:14:52","display":"Y","last_updat":"12\/30\/1899 0:00:00","Latitude":34.23860958,"Longitude":-118.56562994},{"name":"Commerce Business Park","label":"Commerce Business Park","cat2":"Heliports","cat1":"Transportation","cat3":" ","organizati":"US Geological Survey (USGS) & LA County","addrln1":" ","addrln2":" ","city":"City Of Commerce","state":"CA","zip":"90040","source":"HSIP Freedom Airports_Heliports","source_id":"3298748","source_dat":"2020-07-14 23:14:52","display":"Y","last_updat":"12\/30\/1899 0:00:00","Latitude":33.98667543,"Longitude":-118.16061343},{"name":"Los Angeles County Sheriffs Department Heliport","label":"Los Angeles County Sheriffs Department Heliport","cat2":"Heliports","cat1":"Transportation","cat3":" ","organizati":"US Geological Survey (USGS) & LA County","addrln1":" ","addrln2":" ","city":"City Of Industry","state":"CA","zip":"91754","source":"HSIP Freedom Airports_Heliports","source_id":"3298749","source_dat":"2020-07-14 23:14:52","display":"Y","last_updat":"12\/30\/1899 0:00:00","Latitude":34.00417374,"Longitude":-117.93699537},{"name":"Recreation And Conference Center","label":"Recreation And Conference Center","cat2":"Heliports","cat1":"Transportation","cat3":" ","organizati":"US Geological Survey (USGS) & LA County","addrln1":" ","addrln2":" ","city":"City Of Industry","state":"CA","zip":"91744","source":"HSIP Freedom Airports_Heliports","source_id":"3298750","source_dat":"2020-07-14 23:14:52","display":"Y","last_updat":"12\/30\/1899 0:00:00","Latitude":34.01972874,"Longitude":-117.92838427},{"name":"City Of Industry Civic Financial Center","label":"City Of Industry Civic Financial Center","cat2":"Heliports","cat1":"Transportation","cat3":" ","organizati":"US Geological Survey (USGS) & LA County","addrln1":" ","addrln2":" ","city":"City Of Industry","state":"CA","zip":"91744","source":"HSIP Freedom Airports_Heliports","source_id":"3298751","source_dat":"2020-07-14 23:14:52","display":"Y","last_updat":"12\/30\/1899 0:00:00","Latitude":34.02445069,"Longitude":-117.95921846},{"name":"Haddicks","label":"Haddicks","cat2":"Heliports","cat1":"Transportation","cat3":" ","organizati":"US Geological Survey (USGS) & LA County","addrln1":" ","addrln2":" ","city":"City Of Industry","state":"CA","zip":"91744","source":"HSIP Freedom Airports_Heliports","source_id":"3298752","source_dat":"2020-07-14 23:14:53","display":"Y","last_updat":"12\/30\/1899 0:00:00","Latitude":34.02806152,"Longitude":-117.96505256},{"name":"Playa Vista 1","label":"Playa Vista 1","cat2":"Heliports","cat1":"Transportation","cat3":" ","organizati":"US Geological Survey (USGS) & LA County","addrln1":" ","addrln2":" ","city":"Culver City","state":"CA","zip":"90094","source":"HSIP Freedom Airports_Heliports","source_id":"3298753","source_dat":"2020-07-14 23:14:53","display":"Y","last_updat":"12\/30\/1899 0:00:00","Latitude":33.98082849,"Longitude":-118.40498779},{"name":"Playa Vista 2","label":"Playa Vista 2","cat2":"Heliports","cat1":"Transportation","cat3":" ","organizati":"US Geological Survey (USGS) & LA County","addrln1":" ","addrln2":" ","city":"Culver City","state":"CA","zip":"90094","source":"HSIP Freedom Airports_Heliports","source_id":"3298754","source_dat":"2020-07-14 23:14:53","display":"Y","last_updat":"12\/30\/1899 0:00:00","Latitude":33.97971738,"Longitude":-118.40776559},{"name":"Playa Vista 3","label":"Playa Vista 3","cat2":"Heliports","cat1":"Transportation","cat3":" ","organizati":"US Geological Survey (USGS) & LA County","addrln1":" ","addrln2":" ","city":"Culver City","state":"CA","zip":"90094","source":"HSIP Freedom Airports_Heliports","source_id":"3298755","source_dat":"2020-07-14 23:14:53","display":"Y","last_updat":"12\/30\/1899 0:00:00","Latitude":33.97499516,"Longitude":-118.41582109},{"name":"Wells Fargo-El Monte","label":"Wells Fargo-El Monte","cat2":"Heliports","cat1":"Transportation","cat3":" ","organizati":"US Geological Survey (USGS) & LA County","addrln1":" ","addrln2":" ","city":"El Monte","state":"CA","zip":"91735","source":"HSIP Freedom Airports_Heliports","source_id":"3298756","source_dat":"2020-07-14 23:14:53","display":"Y","last_updat":"12\/30\/1899 0:00:00","Latitude":34.07083819,"Longitude":-118.07172224},{"name":"Airport Imperial Bldg Helistop","label":"Airport Imperial Bldg Helistop","cat2":"Heliports","cat1":"Transportation","cat3":" ","organizati":"US Geological Survey (USGS) & LA County","addrln1":" ","addrln2":" ","city":"El Segundo","state":"CA","zip":"90245","source":"HSIP Freedom Airports_Heliports","source_id":"3298757","source_dat":"2020-07-14 23:14:53","display":"Y","last_updat":"12\/30\/1899 0:00:00","Latitude":33.930286,"Longitude":-118.3970081},{"name":"Hughes Space And Communications Heliport","label":"Hughes Space And Communications Heliport","cat2":"Heliports","cat1":"Transportation","cat3":" ","organizati":"US Geological Survey (USGS) & LA County","addrln1":" ","addrln2":" ","city":"El Segundo","state":"CA","zip":"91409","source":"HSIP Freedom Airports_Heliports","source_id":"3298758","source_dat":"2020-07-14 23:14:53","display":"Y","last_updat":"12\/30\/1899 0:00:00","Latitude":33.930286,"Longitude":-118.3981192},{"name":"Chevron Refinery","label":"Chevron Refinery","cat2":"Heliports","cat1":"Transportation","cat3":" ","organizati":"US Geological Survey (USGS) & LA County","addrln1":" ","addrln2":" ","city":"El Segundo","state":"CA","zip":"90245","source":"HSIP Freedom Airports_Heliports","source_id":"3298759","source_dat":"2020-07-14 23:14:53","display":"Y","last_updat":"12\/30\/1899 0:00:00","Latitude":33.91417489,"Longitude":-118.42700839},{"name":"Airport Towers Nr 1","label":"Airport Towers Nr 1","cat2":"Heliports","cat1":"Transportation","cat3":" ","organizati":"US Geological Survey (USGS) & LA County","addrln1":" ","addrln2":" ","city":"El Segundo","state":"CA","zip":"90243","source":"HSIP Freedom Airports_Heliports","source_id":"3298760","source_dat":"2020-07-14 23:14:53","display":"Y","last_updat":"12\/30\/1899 0:00:00","Latitude":33.91695295,"Longitude":-118.3950639},{"name":"Pacific Bell - 2300 Imperial Highway Heliport","label":"Pacific Bell - 2300 Imperial Highway Heliport","cat2":"Heliports","cat1":"Transportation","cat3":" ","organizati":"US Geological Survey (USGS) & LA County","addrln1":" ","addrln2":" ","city":"El Segundo","state":" ","zip":" ","source":"HSIP Freedom Airports_Heliports","source_id":"3298761","source_dat":"2020-07-14 23:14:53","display":"Y","last_updat":"12\/30\/1899 0:00:00","Latitude":33.98000766,"Longitude":-118.38228639},{"name":"Kilroy Airport Center","label":"Kilroy Airport Center","cat2":"Heliports","cat1":"Transportation","cat3":" ","organizati":"US Geological Survey (USGS) & LA County","addrln1":" ","addrln2":" ","city":"El Segundo","state":"CA","zip":"90245","source":"HSIP Freedom Airports_Heliports","source_id":"3298762","source_dat":"2020-07-14 23:14:53","display":"Y","last_updat":"12\/30\/1899 0:00:00","Latitude":33.93250849,"Longitude":-118.3847859},{"name":"Verdugo Hills Hospital","label":"Verdugo Hills Hospital","cat2":"Heliports","cat1":"Transportation","cat3":" ","organizati":"US Geological Survey (USGS) & LA County","addrln1":" ","addrln2":" ","city":"Glendale","state":"CA","zip":"91209","source":"HSIP Freedom Airports_Heliports","source_id":"3298763","source_dat":"2020-07-14 23:14:53","display":"Y","last_updat":"12\/30\/1899 0:00:00","Latitude":34.20416652,"Longitude":-118.217562},{"name":"Glendale Adventist Medical Center\/Gamc","label":"Glendale Adventist Medical Center\/Gamc","cat2":"Heliports","cat1":"Transportation","cat3":" ","organizati":"US Geological Survey (USGS) & LA County","addrln1":" ","addrln2":" ","city":"Glendale","state":"CA","zip":"91206","source":"HSIP Freedom Airports_Heliports","source_id":"3298764","source_dat":"2020-07-14 23:14:53","display":"Y","last_updat":"12\/30\/1899 0:00:00","Latitude":34.15166902,"Longitude":-118.23006221},{"name":"Bank Of America Glendale","label":"Bank Of America Glendale","cat2":"Heliports","cat1":"Transportation","cat3":" ","organizati":"US Geological Survey (USGS) & LA County","addrln1":" ","addrln2":" ","city":"Glendale","state":"CA","zip":"91203","source":"HSIP Freedom Airports_Heliports","source_id":"3298765","source_dat":"2020-07-14 23:14:53","display":"Y","last_updat":"12\/30\/1899 0:00:00","Latitude":34.15555791,"Longitude":-118.256452},{"name":"Glen Fed","label":"Glen Fed","cat2":"Heliports","cat1":"Transportation","cat3":" ","organizati":"US Geological Survey (USGS) & LA County","addrln1":" ","addrln2":" ","city":"Glendale","state":"CA","zip":"91209","source":"HSIP Freedom Airports_Heliports","source_id":"3298766","source_dat":"2020-07-14 23:14:53","display":"Y","last_updat":"12\/30\/1899 0:00:00","Latitude":34.1572243,"Longitude":-118.254507},{"name":"Dreamworks Helistop Glendale","label":"Dreamworks Helistop Glendale","cat2":"Heliports","cat1":"Transportation","cat3":" ","organizati":"US Geological Survey (USGS) & LA County","addrln1":" ","addrln2":" ","city":"Glendale","state":"CA","zip":"91201","source":"HSIP Freedom Airports_Heliports","source_id":"3298767","source_dat":"2020-07-14 23:14:53","display":"Y","last_updat":"12\/30\/1899 0:00:00","Latitude":34.15832847,"Longitude":-118.2860989},{"name":"Glendale Plaza Emergency","label":"Glendale Plaza Emergency","cat2":"Heliports","cat1":"Transportation","cat3":" ","organizati":"US Geological Survey (USGS) & LA County","addrln1":" ","addrln2":" ","city":"Glendale","state":"CA","zip":"91203","source":"HSIP Freedom Airports_Heliports","source_id":"3298768","source_dat":"2020-07-14 23:14:54","display":"Y","last_updat":"12\/30\/1899 0:00:00","Latitude":34.15555069,"Longitude":-118.2585989},{"name":"Camp 2 Heliport","label":"Camp 2 Heliport","cat2":"Heliports","cat1":"Transportation","cat3":" ","organizati":"US Geological Survey (USGS) & LA County","addrln1":" ","addrln2":" ","city":"La Canada","state":"CA","zip":"91011","source":"HSIP Freedom Airports_Heliports","source_id":"3298769","source_dat":"2020-07-14 23:14:54","display":"Y","last_updat":"12\/30\/1899 0:00:00","Latitude":34.19722234,"Longitude":-118.17394951},{"name":"Los Angeles County Sheriff Lakewood Heliport","label":"Los Angeles County Sheriff Lakewood Heliport","cat2":"Heliports","cat1":"Transportation","cat3":" ","organizati":"US Geological Survey (USGS) & LA County","addrln1":" ","addrln2":" ","city":"Lakewood","state":"CA","zip":"91754","source":"HSIP Freedom Airports_Heliports","source_id":"3298770","source_dat":"2020-07-14 23:14:54","display":"Y","last_updat":"12\/30\/1899 0:00:00","Latitude":33.85084433,"Longitude":-118.13338845},{"name":"Sheriffs Heliport","label":"Sheriffs Heliport","cat2":"Heliports","cat1":"Transportation","cat3":" ","organizati":"US Geological Survey (USGS) & LA County","addrln1":" ","addrln2":" ","city":"Lancaster","state":"CA","zip":"91754","source":"HSIP Freedom Airports_Heliports","source_id":"3298771","source_dat":"2020-07-14 23:14:54","display":"Y","last_updat":"12\/30\/1899 0:00:00","Latitude":34.69998006,"Longitude":-118.05922449},{"name":"Antelope Valley Service Center","label":"Antelope Valley Service Center","cat2":"Heliports","cat1":"Transportation","cat3":" ","organizati":"US Geological Survey (USGS) & LA County","addrln1":" ","addrln2":" ","city":"Lancaster","state":"CA","zip":"93539","source":"HSIP Freedom Airports_Heliports","source_id":"3298772","source_dat":"2020-07-14 23:14:54","display":"Y","last_updat":"12\/30\/1899 0:00:00","Latitude":34.64748201,"Longitude":-118.14561608},{"name":"Queensway Bay","label":"Queensway Bay","cat2":"Heliports","cat1":"Transportation","cat3":" ","organizati":"US Geological Survey (USGS) & LA County","addrln1":" ","addrln2":" ","city":"Long Beach","state":"CA","zip":"90801","source":"HSIP Freedom Airports_Heliports","source_id":"3298773","source_dat":"2020-07-14 23:14:54","display":"Y","last_updat":"12\/30\/1899 0:00:00","Latitude":33.75501323,"Longitude":-118.19477815},{"name":"Va Medical Center","label":"Va Medical Center","cat2":"Heliports","cat1":"Transportation","cat3":" ","organizati":"US Geological Survey (USGS) & LA County","addrln1":" ","addrln2":" ","city":"Long Beach","state":"CA","zip":"90822","source":"HSIP Freedom Airports_Heliports","source_id":"3298774","source_dat":"2020-07-14 23:14:54","display":"Y","last_updat":"12\/30\/1899 0:00:00","Latitude":33.77584545,"Longitude":-118.11949756},{"name":"Kilroy Ac8-Long Beach","label":"Kilroy Ac8-Long Beach","cat2":"Heliports","cat1":"Transportation","cat3":" ","organizati":"US Geological Survey (USGS) & LA County","addrln1":" ","addrln2":" ","city":"Long Beach","state":"CA","zip":"90245","source":"HSIP Freedom Airports_Heliports","source_id":"3298775","source_dat":"2020-07-14 23:14:54","display":"Y","last_updat":"12\/30\/1899 0:00:00","Latitude":33.80723406,"Longitude":-118.14616615},{"name":"World Trade Center","label":"World Trade Center","cat2":"Heliports","cat1":"Transportation","cat3":" ","organizati":"US Geological Survey (USGS) & LA County","addrln1":" ","addrln2":" ","city":"Long Beach","state":"CA","zip":"90293","source":"HSIP Freedom Airports_Heliports","source_id":"3298776","source_dat":"2020-07-14 23:14:54","display":"Y","last_updat":"12\/30\/1899 0:00:00","Latitude":33.777791,"Longitude":-118.19950094},{"name":"Long Beach Memorial Medical Center","label":"Long Beach Memorial Medical Center","cat2":"Heliports","cat1":"Transportation","cat3":" ","organizati":"US Geological Survey (USGS) & LA County","addrln1":" ","addrln2":" ","city":"Long Beach","state":"CA","zip":"90801","source":"HSIP Freedom Airports_Heliports","source_id":"3298777","source_dat":"2020-07-14 23:14:54","display":"Y","last_updat":"12\/30\/1899 0:00:00","Latitude":33.80834545,"Longitude":-118.18727864},{"name":"St Mary Medical Center","label":"St Mary Medical Center","cat2":"Heliports","cat1":"Transportation","cat3":" ","organizati":"US Geological Survey (USGS) & LA County","addrln1":" ","addrln2":" ","city":"Long Beach","state":"CA","zip":"90801","source":"HSIP Freedom Airports_Heliports","source_id":"3298778","source_dat":"2020-07-14 23:14:54","display":"Y","last_updat":"12\/30\/1899 0:00:00","Latitude":33.77890156,"Longitude":-118.18588924},{"name":"Queen Mary","label":"Queen Mary","cat2":"Heliports","cat1":"Transportation","cat3":" ","organizati":"US Geological Survey (USGS) & LA County","addrln1":" ","addrln2":" ","city":"Long Beach","state":" ","zip":" ","source":"HSIP Freedom Airports_Heliports","source_id":"3298779","source_dat":"2020-07-14 23:14:54","display":"Y","last_updat":"12\/30\/1899 0:00:00","Latitude":33.74943961,"Longitude":-118.18776565},{"name":"Naa Long Beach Port Helistop","label":"Naa Long Beach Port Helistop","cat2":"Heliports","cat1":"Transportation","cat3":" ","organizati":"US Geological Survey (USGS) & LA County","addrln1":" ","addrln2":" ","city":"Long Beach","state":"CA","zip":"90806","source":"HSIP Freedom Airports_Heliports","source_id":"3298780","source_dat":"2020-07-14 23:14:55","display":"Y","last_updat":"12\/30\/1899 0:00:00","Latitude":33.76473517,"Longitude":-118.19950064},{"name":"St Vincent Professional Office Building","label":"St Vincent Professional Office Building","cat2":"Heliports","cat1":"Transportation","cat3":" ","organizati":"US Geological Survey (USGS) & LA County","addrln1":" ","addrln2":" ","city":"Los Angeles","state":"CA","zip":"90057","source":"HSIP Freedom Airports_Heliports","source_id":"3298781","source_dat":"2020-07-14 23:14:55","display":"Y","last_updat":"12\/30\/1899 0:00:00","Latitude":34.06389514,"Longitude":-118.27256281},{"name":"Usc University Hospital","label":"Usc University Hospital","cat2":"Heliports","cat1":"Transportation","cat3":" ","organizati":"US Geological Survey (USGS) & LA County","addrln1":" ","addrln2":" ","city":"Los Angeles","state":"CA","zip":"90404","source":"HSIP Freedom Airports_Heliports","source_id":"3298782","source_dat":"2020-07-14 23:14:55","display":"Y","last_updat":"12\/30\/1899 0:00:00","Latitude":34.0538957,"Longitude":-118.20172702},{"name":"Van Nuys County Court","label":"Van Nuys County Court","cat2":"Heliports","cat1":"Transportation","cat3":" ","organizati":"US Geological Survey (USGS) & LA County","addrln1":" ","addrln2":" ","city":"Los Angeles","state":"CA","zip":"91754","source":"HSIP Freedom Airports_Heliports","source_id":"3298783","source_dat":"2020-07-14 23:14:55","display":"Y","last_updat":"12\/30\/1899 0:00:00","Latitude":34.18333347,"Longitude":-118.44756997},{"name":"Wilshire Area","label":"Wilshire Area","cat2":"Heliports","cat1":"Transportation","cat3":" ","organizati":"US Geological Survey (USGS) & LA County","addrln1":" ","addrln2":" ","city":"Los Angeles","state":"CA","zip":"90012","source":"HSIP Freedom Airports_Heliports","source_id":"3298784","source_dat":"2020-07-14 23:14:55","display":"Y","last_updat":"12\/30\/1899 0:00:00","Latitude":34.04695043,"Longitude":-118.3425645},{"name":"Devonshire Area","label":"Devonshire Area","cat2":"Heliports","cat1":"Transportation","cat3":" ","organizati":"US Geological Survey (USGS) & LA County","addrln1":" ","addrln2":" ","city":"Los Angeles","state":"CA","zip":"90012","source":"HSIP Freedom Airports_Heliports","source_id":"3298785","source_dat":"2020-07-14 23:14:55","display":"Y","last_updat":"12\/30\/1899 0:00:00","Latitude":34.25694236,"Longitude":-118.53146305},{"name":"Parker Center","label":"Parker Center","cat2":"Heliports","cat1":"Transportation","cat3":" ","organizati":"US Geological Survey (USGS) & LA County","addrln1":" ","addrln2":" ","city":"Los Angeles","state":"CA","zip":"90012","source":"HSIP Freedom Airports_Heliports","source_id":"3298786","source_dat":"2020-07-14 23:14:55","display":"Y","last_updat":"12\/30\/1899 0:00:00","Latitude":34.05222903,"Longitude":-118.24117281},{"name":"Hotel New Otani Los Angeles","label":"Hotel New Otani Los Angeles","cat2":"Heliports","cat1":"Transportation","cat3":" ","organizati":"US Geological Survey (USGS) & LA County","addrln1":" ","addrln2":" ","city":"Los Angeles","state":"CA","zip":"90012","source":"HSIP Freedom Airports_Heliports","source_id":"3298787","source_dat":"2020-07-14 23:14:55","display":"Y","last_updat":"12\/30\/1899 0:00:00","Latitude":34.0511182,"Longitude":-118.24256171},{"name":"Ucla Emergency Medicine Dept.","label":"Ucla Emergency Medicine Dept.","cat2":"Heliports","cat1":"Transportation","cat3":" ","organizati":"US Geological Survey (USGS) & LA County","addrln1":" ","addrln2":" ","city":"Los Angeles","state":"CA","zip":"90025","source":"HSIP Freedom Airports_Heliports","source_id":"3298788","source_dat":"2020-07-14 23:14:55","display":"Y","last_updat":"12\/30\/1899 0:00:00","Latitude":34.06500404,"Longitude":-118.44256748},{"name":"The Wilshire Thayer","label":"The Wilshire Thayer","cat2":"Heliports","cat1":"Transportation","cat3":" ","organizati":"US Geological Survey (USGS) & LA County","addrln1":" ","addrln2":" ","city":"Los Angeles","state":"CA","zip":"90024","source":"HSIP Freedom Airports_Heliports","source_id":"3298789","source_dat":"2020-07-14 23:14:55","display":"Y","last_updat":"12\/30\/1899 0:00:00","Latitude":34.06250432,"Longitude":-118.43256718},{"name":"California Mart Heliport","label":"California Mart Heliport","cat2":"Heliports","cat1":"Transportation","cat3":" ","organizati":"US Geological Survey (USGS) & LA County","addrln1":" ","addrln2":" ","city":"Los Angeles","state":"CA","zip":"90079","source":"HSIP Freedom Airports_Heliports","source_id":"3298790","source_dat":"2020-07-14 23:14:55","display":"Y","last_updat":"12\/30\/1899 0:00:00","Latitude":34.04028543,"Longitude":-118.25617311},{"name":"Los Angeles County Mens Detention Center - Main Jail Heliport","label":"Los Angeles County Mens Detention Center - Main Jail Heliport","cat2":"Heliports","cat1":"Transportation","cat3":" ","organizati":"US Geological Survey (USGS) & LA County","addrln1":" ","addrln2":" ","city":"Los Angeles","state":"CA","zip":"91754","source":"HSIP Freedom Airports_Heliports","source_id":"3298791","source_dat":"2020-07-14 23:14:55","display":"Y","last_updat":"12\/30\/1899 0:00:00","Latitude":34.06028431,"Longitude":-118.23033841},{"name":"Lapd Central Facilities Heliport","label":"Lapd Central Facilities Heliport","cat2":"Heliports","cat1":"Transportation","cat3":" ","organizati":"US Geological Survey (USGS) & LA County","addrln1":" ","addrln2":" ","city":"Los Angeles","state":"CA","zip":"90012","source":"HSIP Freedom Airports_Heliports","source_id":"3298792","source_dat":"2020-07-14 23:14:56","display":"Y","last_updat":"12\/30\/1899 0:00:00","Latitude":34.04334071,"Longitude":-118.24700591},{"name":"United Ca Bank Data Processing Ops","label":"United Ca Bank Data Processing Ops","cat2":"Heliports","cat1":"Transportation","cat3":" ","organizati":"US Geological Survey (USGS) & LA County","addrln1":" ","addrln2":" ","city":"Los Angeles","state":"CA","zip":"90014","source":"HSIP Freedom Airports_Heliports","source_id":"3298793","source_dat":"2020-07-14 23:14:56","display":"Y","last_updat":"12\/30\/1899 0:00:00","Latitude":34.06972793,"Longitude":-118.2922853},{"name":"The Westin Bonaventure Hotel","label":"The Westin Bonaventure Hotel","cat2":"Heliports","cat1":"Transportation","cat3":" ","organizati":"US Geological Survey (USGS) & LA County","addrln1":" ","addrln2":" ","city":"Los Angeles","state":"GA","zip":"30303","source":"HSIP Freedom Airports_Heliports","source_id":"3298794","source_dat":"2020-07-14 23:14:56","display":"Y","last_updat":"12\/30\/1899 0:00:00","Latitude":34.05278486,"Longitude":-118.25589501},{"name":"City National Plaza","label":"City National Plaza","cat2":"Heliports","cat1":"Transportation","cat3":" ","organizati":"US Geological Survey (USGS) & LA County","addrln1":" ","addrln2":" ","city":"Los Angeles","state":"CA","zip":"90071","source":"HSIP Freedom Airports_Heliports","source_id":"3298795","source_dat":"2020-07-14 23:14:56","display":"Y","last_updat":"12\/30\/1899 0:00:00","Latitude":34.05139597,"Longitude":-118.25700611},{"name":"Los Angeles County Sheriffs Department Heliport","label":"Los Angeles County Sheriffs Department Heliport","cat2":"Heliports","cat1":"Transportation","cat3":" ","organizati":"US Geological Survey (USGS) & LA County","addrln1":" ","addrln2":" ","city":"Los Angeles","state":"CA","zip":"91754","source":"HSIP Freedom Airports_Heliports","source_id":"3298796","source_dat":"2020-07-14 23:14:56","display":"Y","last_updat":"12\/30\/1899 0:00:00","Latitude":34.05797896,"Longitude":-118.16681956},{"name":"Maguire-California Hospital","label":"Maguire-California Hospital","cat2":"Heliports","cat1":"Transportation","cat3":" ","organizati":"US Geological Survey (USGS) & LA County","addrln1":" ","addrln2":" ","city":"Van Nuys","state":"CA","zip":"90401","source":"HSIP Freedom Airports_Heliports","source_id":"3298797","source_dat":"2020-07-14 23:14:56","display":"Y","last_updat":"12\/30\/1899 0:00:00","Latitude":34.03499515,"Longitude":-118.26609891},{"name":"Jay Stephen Hooper Memorial","label":"Jay Stephen Hooper Memorial","cat2":"Heliports","cat1":"Transportation","cat3":" ","organizati":"US Geological Survey (USGS) & LA County","addrln1":" ","addrln2":" ","city":"Los Angeles","state":"CA","zip":"90012","source":"HSIP Freedom Airports_Heliports","source_id":"3298798","source_dat":"2020-07-14 23:14:56","display":"Y","last_updat":"12\/30\/1899 0:00:00","Latitude":34.05445125,"Longitude":-118.22922722},{"name":"Terminal Annex","label":"Terminal Annex","cat2":"Heliports","cat1":"Transportation","cat3":" ","organizati":"US Geological Survey (USGS) & LA County","addrln1":" ","addrln2":" ","city":"Los Angeles","state":"DC","zip":"20260","source":"HSIP Freedom Airports_Heliports","source_id":"3298799","source_dat":"2020-07-14 23:14:56","display":"Y","last_updat":"12\/30\/1899 0:00:00","Latitude":34.05806236,"Longitude":-118.23561641},{"name":"Merle Norman Cosmetics Building 3 Heliport","label":"Merle Norman Cosmetics Building 3 Heliport","cat2":"Heliports","cat1":"Transportation","cat3":" ","organizati":"US Geological Survey (USGS) & LA County","addrln1":" ","addrln2":" ","city":"Los Angeles","state":"CA","zip":"90045","source":"HSIP Freedom Airports_Heliports","source_id":"3298800","source_dat":"2020-07-14 23:14:56","display":"Y","last_updat":"12\/30\/1899 0:00:00","Latitude":33.95334155,"Longitude":-118.380897},{"name":"City National Bank","label":"City National Bank","cat2":"Heliports","cat1":"Transportation","cat3":" ","organizati":"US Geological Survey (USGS) & LA County","addrln1":" ","addrln2":" ","city":"Los Angeles","state":"CA","zip":"90014","source":"HSIP Freedom Airports_Heliports","source_id":"3298801","source_dat":"2020-07-14 23:14:56","display":"Y","last_updat":"12\/30\/1899 0:00:00","Latitude":34.04778487,"Longitude":-118.25450611},{"name":"Sunset-Glendale","label":"Sunset-Glendale","cat2":"Heliports","cat1":"Transportation","cat3":" ","organizati":"US Geological Survey (USGS) & LA County","addrln1":" ","addrln2":" ","city":"Los Angeles","state":"CA","zip":"90026","source":"HSIP Freedom Airports_Heliports","source_id":"3298802","source_dat":"2020-07-14 23:14:56","display":"Y","last_updat":"12\/30\/1899 0:00:00","Latitude":34.07778347,"Longitude":-118.25950641},{"name":"Operating Engineers Pension Trust Bldg","label":"Operating Engineers Pension Trust Bldg","cat2":"Heliports","cat1":"Transportation","cat3":" ","organizati":"US Geological Survey (USGS) & LA County","addrln1":" ","addrln2":" ","city":"Los Angeles","state":"CA","zip":"90010","source":"HSIP Freedom Airports_Heliports","source_id":"3298803","source_dat":"2020-07-14 23:14:56","display":"Y","last_updat":"12\/30\/1899 0:00:00","Latitude":34.06195043,"Longitude":-118.2911742},{"name":"Bank Of America Data Center","label":"Bank Of America Data Center","cat2":"Heliports","cat1":"Transportation","cat3":" ","organizati":"US Geological Survey (USGS) & LA County","addrln1":" ","addrln2":" ","city":"Los Angeles","state":"CA","zip":"90012","source":"HSIP Freedom Airports_Heliports","source_id":"3298804","source_dat":"2020-07-14 23:14:56","display":"Y","last_updat":"12\/30\/1899 0:00:00","Latitude":34.06222875,"Longitude":-118.25089501},{"name":"Beverly Center Heliport","label":"Beverly Center Heliport","cat2":"Heliports","cat1":"Transportation","cat3":" ","organizati":"US Geological Survey (USGS) & LA County","addrln1":" ","addrln2":" ","city":"Los Angeles","state":"MI","zip":"48304","source":"HSIP Freedom Airports_Heliports","source_id":"3298805","source_dat":"2020-07-14 23:14:56","display":"Y","last_updat":"12\/30\/1899 0:00:00","Latitude":34.07389348,"Longitude":-118.37728779},{"name":"Everest And Jennings Helistop Number 1","label":"Everest And Jennings Helistop Number 1","cat2":"Heliports","cat1":"Transportation","cat3":" ","organizati":"US Geological Survey (USGS) & LA County","addrln1":" ","addrln2":" ","city":"Los Angeles","state":"CA","zip":"90025","source":"HSIP Freedom Airports_Heliports","source_id":"3298806","source_dat":"2020-07-14 23:14:56","display":"Y","last_updat":"12\/30\/1899 0:00:00","Latitude":34.0447271,"Longitude":-118.44478918},{"name":"Occidental Petroleum","label":"Occidental Petroleum","cat2":"Heliports","cat1":"Transportation","cat3":" ","organizati":"US Geological Survey (USGS) & LA County","addrln1":" ","addrln2":" ","city":"Los Angeles","state":"CA","zip":"90024","source":"HSIP Freedom Airports_Heliports","source_id":"3298807","source_dat":"2020-07-14 23:14:56","display":"Y","last_updat":"12\/30\/1899 0:00:00","Latitude":34.05889321,"Longitude":-118.44367858},{"name":"City Hall","label":"City Hall","cat2":"Heliports","cat1":"Transportation","cat3":" ","organizati":"US Geological Survey (USGS) & LA County","addrln1":" ","addrln2":" ","city":"Los Angeles","state":" ","zip":" ","source":"HSIP Freedom Airports_Heliports","source_id":"3298808","source_dat":"2020-07-14 23:14:56","display":"Y","last_updat":"12\/30\/1899 0:00:00","Latitude":34.05417347,"Longitude":-118.24256171},{"name":"Engine Company Number 108 Heliport","label":"Engine Company Number 108 Heliport","cat2":"Heliports","cat1":"Transportation","cat3":" ","organizati":"US Geological Survey (USGS) & LA County","addrln1":" ","addrln2":" ","city":"Los Angeles","state":" ","zip":" ","source":"HSIP Freedom Airports_Heliports","source_id":"3298809","source_dat":"2020-07-14 23:14:57","display":"Y","last_updat":"12\/30\/1899 0:00:00","Latitude":34.12666903,"Longitude":-118.40701168},{"name":"Engine Company Number 109 Heliport","label":"Engine Company Number 109 Heliport","cat2":"Heliports","cat1":"Transportation","cat3":" ","organizati":"US Geological Survey (USGS) & LA County","addrln1":" ","addrln2":" ","city":"Los Angeles\/Van Nuys","state":" ","zip":" ","source":"HSIP Freedom Airports_Heliports","source_id":"3298810","source_dat":"2020-07-14 23:14:57","display":"Y","last_updat":"12\/30\/1899 0:00:00","Latitude":34.13083487,"Longitude":-118.49062556},{"name":"Biltmore Hotel Heliport","label":"Biltmore Hotel Heliport","cat2":"Heliports","cat1":"Transportation","cat3":" ","organizati":"US Geological Survey (USGS) & LA County","addrln1":" ","addrln2":" ","city":"Los Angeles","state":"CA","zip":"90071","source":"HSIP Freedom Airports_Heliports","source_id":"3298811","source_dat":"2020-07-14 23:14:57","display":"Y","last_updat":"12\/30\/1899 0:00:00","Latitude":34.04917376,"Longitude":-118.25339501},{"name":"Wells Fargo-Cv","label":"Wells Fargo-Cv","cat2":"Heliports","cat1":"Transportation","cat3":" ","organizati":"US Geological Survey (USGS) & LA County","addrln1":" ","addrln2":" ","city":"Los Angeles","state":"CA","zip":"90071","source":"HSIP Freedom Airports_Heliports","source_id":"3298812","source_dat":"2020-07-14 23:14:57","display":"Y","last_updat":"12\/30\/1899 0:00:00","Latitude":34.04167404,"Longitude":-118.27172841},{"name":"Abc-Tv","label":"Abc-Tv","cat2":"Heliports","cat1":"Transportation","cat3":" ","organizati":"US Geological Survey (USGS) & LA County","addrln1":" ","addrln2":" ","city":"Los Angeles","state":"CA","zip":"90067","source":"HSIP Freedom Airports_Heliports","source_id":"3298813","source_dat":"2020-07-14 23:14:57","display":"Y","last_updat":"12\/30\/1899 0:00:00","Latitude":34.10333764,"Longitude":-118.2825634},{"name":"Fib Administration & Operations Building","label":"Fib Administration & Operations Building","cat2":"Heliports","cat1":"Transportation","cat3":" ","organizati":"US Geological Survey (USGS) & LA County","addrln1":" ","addrln2":" ","city":"Los Angeles","state":"CA","zip":"90017","source":"HSIP Freedom Airports_Heliports","source_id":"3298814","source_dat":"2020-07-14 23:14:57","display":"Y","last_updat":"12\/30\/1899 0:00:00","Latitude":34.05361792,"Longitude":-118.26450641},{"name":"Caltrans District 7","label":"Caltrans District 7","cat2":"Heliports","cat1":"Transportation","cat3":" ","organizati":"US Geological Survey (USGS) & LA County","addrln1":" ","addrln2":" ","city":"Los Angeles","state":"CA","zip":"90012","source":"HSIP Freedom Airports_Heliports","source_id":"3298815","source_dat":"2020-07-14 23:14:57","display":"Y","last_updat":"12\/30\/1899 0:00:00","Latitude":34.05146736,"Longitude":-118.24304341},{"name":"Queen Of Angel-Hollywood Presbyterian Hospital Heliport","label":"Queen Of Angel-Hollywood Presbyterian Hospital Heliport","cat2":"Heliports","cat1":"Transportation","cat3":" ","organizati":"US Geological Survey (USGS) & LA County","addrln1":" ","addrln2":" ","city":"Los Angeles","state":"CA","zip":"90027","source":"HSIP Freedom Airports_Heliports","source_id":"3298816","source_dat":"2020-07-14 23:14:57","display":"Y","last_updat":"12\/30\/1899 0:00:00","Latitude":34.09639347,"Longitude":-118.2903406},{"name":"Transamerica Center","label":"Transamerica Center","cat2":"Heliports","cat1":"Transportation","cat3":" ","organizati":"US Geological Survey (USGS) & LA County","addrln1":" ","addrln2":" ","city":"Los Angeles","state":"CA","zip":"90015","source":"HSIP Freedom Airports_Heliports","source_id":"3298817","source_dat":"2020-07-14 23:14:57","display":"Y","last_updat":"12\/30\/1899 0:00:00","Latitude":34.03972958,"Longitude":-118.22839422},{"name":"Litton Industries","label":"Litton Industries","cat2":"Heliports","cat1":"Transportation","cat3":" ","organizati":"US Geological Survey (USGS) & LA County","addrln1":" ","addrln2":" ","city":"Los Angeles","state":"CA","zip":"91364","source":"HSIP Freedom Airports_Heliports","source_id":"3298818","source_dat":"2020-07-14 23:14:57","display":"Y","last_updat":"12\/30\/1899 0:00:00","Latitude":34.16861126,"Longitude":-118.59451804},{"name":"Childrens Hospital Los Angeles","label":"Childrens Hospital Los Angeles","cat2":"Heliports","cat1":"Transportation","cat3":" ","organizati":"US Geological Survey (USGS) & LA County","addrln1":" ","addrln2":" ","city":"Los Angeles","state":"CA","zip":"90027","source":"HSIP Freedom Airports_Heliports","source_id":"3298819","source_dat":"2020-07-14 23:14:57","display":"Y","last_updat":"12\/30\/1899 0:00:00","Latitude":34.0961157,"Longitude":-118.2903406},{"name":"International Tower","label":"International Tower","cat2":"Heliports","cat1":"Transportation","cat3":" ","organizati":"US Geological Survey (USGS) & LA County","addrln1":" ","addrln2":" ","city":"Los Angeles","state":"CA","zip":"90017","source":"HSIP Freedom Airports_Heliports","source_id":"3298820","source_dat":"2020-07-14 23:14:57","display":"Y","last_updat":"12\/30\/1899 0:00:00","Latitude":34.04639598,"Longitude":-118.26256221},{"name":"Westwood Gateway","label":"Westwood Gateway","cat2":"Heliports","cat1":"Transportation","cat3":" ","organizati":"US Geological Survey (USGS) & LA County","addrln1":" ","addrln2":" ","city":"Los Angeles","state":"CA","zip":"90025","source":"HSIP Freedom Airports_Heliports","source_id":"3298821","source_dat":"2020-07-14 23:14:57","display":"Y","last_updat":"12\/30\/1899 0:00:00","Latitude":34.04778238,"Longitude":-118.44506748},{"name":"Hughes Corporate Heliport","label":"Hughes Corporate Heliport","cat2":"Heliports","cat1":"Transportation","cat3":" ","organizati":"US Geological Survey (USGS) & LA County","addrln1":" ","addrln2":" ","city":"Los Angeles","state":"CA","zip":"91409","source":"HSIP Freedom Airports_Heliports","source_id":"3298822","source_dat":"2020-07-14 23:14:57","display":"Y","last_updat":"12\/30\/1899 0:00:00","Latitude":33.96611822,"Longitude":-118.42423139},{"name":"Good Samaritan Hospital","label":"Good Samaritan Hospital","cat2":"Heliports","cat1":"Transportation","cat3":" ","organizati":"US Geological Survey (USGS) & LA County","addrln1":" ","addrln2":" ","city":"Los Angeles","state":"CA","zip":"90017","source":"HSIP Freedom Airports_Heliports","source_id":"3298823","source_dat":"2020-07-14 23:14:57","display":"Y","last_updat":"12\/30\/1899 0:00:00","Latitude":34.05445125,"Longitude":-118.26506251},{"name":"Cedars-Sinai Medical Center","label":"Cedars-Sinai Medical Center","cat2":"Heliports","cat1":"Transportation","cat3":" ","organizati":"US Geological Survey (USGS) & LA County","addrln1":" ","addrln2":" ","city":"Los Angeles","state":"CA","zip":"90048","source":"HSIP Freedom Airports_Heliports","source_id":"3298824","source_dat":"2020-07-14 23:14:57","display":"Y","last_updat":"12\/30\/1899 0:00:00","Latitude":34.07638404,"Longitude":-118.38193219},{"name":"Raleigh Enterprises","label":"Raleigh Enterprises","cat2":"Heliports","cat1":"Transportation","cat3":" ","organizati":"US Geological Survey (USGS) & LA County","addrln1":" ","addrln2":" ","city":"Los Angeles","state":"CA","zip":"90064","source":"HSIP Freedom Airports_Heliports","source_id":"3298825","source_dat":"2020-07-14 23:14:57","display":"Y","last_updat":"12\/30\/1899 0:00:00","Latitude":34.03611627,"Longitude":-118.44201138},{"name":"Chase Plaza","label":"Chase Plaza","cat2":"Heliports","cat1":"Transportation","cat3":" ","organizati":"US Geological Survey (USGS) & LA County","addrln1":" ","addrln2":" ","city":"Los Angeles","state":"CA","zip":"90293","source":"HSIP Freedom Airports_Heliports","source_id":"3298826","source_dat":"2020-07-14 23:14:57","display":"Y","last_updat":"12\/30\/1899 0:00:00","Latitude":34.03722987,"Longitude":-118.25811751},{"name":"K & T 660 Figueroa Partners","label":"K & T 660 Figueroa Partners","cat2":"Heliports","cat1":"Transportation","cat3":" ","organizati":"US Geological Survey (USGS) & LA County","addrln1":" ","addrln2":" ","city":"Los Angeles","state":"CA","zip":"90017","source":"HSIP Freedom Airports_Heliports","source_id":"3298827","source_dat":"2020-07-14 23:14:57","display":"Y","last_updat":"12\/30\/1899 0:00:00","Latitude":34.04917376,"Longitude":-118.25922811},{"name":"Westside Towers","label":"Westside Towers","cat2":"Heliports","cat1":"Transportation","cat3":" ","organizati":"US Geological Survey (USGS) & LA County","addrln1":" ","addrln2":" ","city":"Los Angeles","state":"CA","zip":"90064","source":"HSIP Freedom Airports_Heliports","source_id":"3298828","source_dat":"2020-07-14 23:14:57","display":"Y","last_updat":"12\/30\/1899 0:00:00","Latitude":34.03306072,"Longitude":-118.45256718},{"name":"Los Angeles Times-Los Angeles Heliport","label":"Los Angeles Times-Los Angeles Heliport","cat2":"Heliports","cat1":"Transportation","cat3":" ","organizati":"US Geological Survey (USGS) & LA County","addrln1":" ","addrln2":" ","city":"Los Angeles","state":"CA","zip":"90053","source":"HSIP Freedom Airports_Heliports","source_id":"3298829","source_dat":"2020-07-14 23:14:57","display":"Y","last_updat":"12\/30\/1899 0:00:00","Latitude":34.05056264,"Longitude":-118.24617281},{"name":"Edward Roybal Federal Bldg","label":"Edward Roybal Federal Bldg","cat2":"Heliports","cat1":"Transportation","cat3":" ","organizati":"US Geological Survey (USGS) & LA County","addrln1":" ","addrln2":" ","city":"Los Angeles","state":"CA","zip":"90012","source":"HSIP Freedom Airports_Heliports","source_id":"3298830","source_dat":"2020-07-14 23:14:57","display":"Y","last_updat":"12\/30\/1899 0:00:00","Latitude":34.05332847,"Longitude":-118.23915451},{"name":"Drew Medical Center","label":"Drew Medical Center","cat2":"Heliports","cat1":"Transportation","cat3":" ","organizati":"US Geological Survey (USGS) & LA County","addrln1":" ","addrln2":" ","city":"Los Angeles","state":"CA","zip":"90059","source":"HSIP Freedom Airports_Heliports","source_id":"3298831","source_dat":"2020-07-14 23:14:58","display":"Y","last_updat":"12\/30\/1899 0:00:00","Latitude":33.92332849,"Longitude":-118.24193222},{"name":"Metropolitan Water District","label":"Metropolitan Water District","cat2":"Heliports","cat1":"Transportation","cat3":" ","organizati":"US Geological Survey (USGS) & LA County","addrln1":" ","addrln2":" ","city":"Los Angeles","state":"CA","zip":"90013","source":"HSIP Freedom Airports_Heliports","source_id":"3298832","source_dat":"2020-07-14 23:14:58","display":"Y","last_updat":"12\/30\/1899 0:00:00","Latitude":34.05443958,"Longitude":-118.23665451},{"name":"Dept. Of Water And Power Granada Hills","label":"Dept. Of Water And Power Granada Hills","cat2":"Heliports","cat1":"Transportation","cat3":" ","organizati":"US Geological Survey (USGS) & LA County","addrln1":" ","addrln2":" ","city":"Los Angeles","state":"CA","zip":"90012","source":"HSIP Freedom Airports_Heliports","source_id":"3298833","source_dat":"2020-07-14 23:14:58","display":"Y","last_updat":"12\/30\/1899 0:00:00","Latitude":34.28902291,"Longitude":-118.47109886},{"name":"Department Of Water & Power Los Angeles","label":"Department Of Water & Power Los Angeles","cat2":"Heliports","cat1":"Transportation","cat3":" ","organizati":"US Geological Survey (USGS) & LA County","addrln1":" ","addrln2":" ","city":"Los Angeles","state":"CA","zip":"90012","source":"HSIP Freedom Airports_Heliports","source_id":"3298834","source_dat":"2020-07-14 23:14:58","display":"Y","last_updat":"12\/30\/1899 0:00:00","Latitude":34.0580507,"Longitude":-118.24859891},{"name":"Ri Ai Canoga Park B\/2 Helistop","label":"Ri Ai Canoga Park B\/2 Helistop","cat2":"Heliports","cat1":"Transportation","cat3":" ","organizati":"US Geological Survey (USGS) & LA County","addrln1":" ","addrln2":" ","city":"Los Angeles","state":"CA","zip":"90245","source":"HSIP Freedom Airports_Heliports","source_id":"3298835","source_dat":"2020-07-14 23:14:58","display":"Y","last_updat":"12\/30\/1899 0:00:00","Latitude":34.23360986,"Longitude":-118.58701914},{"name":"Century City","label":"Century City","cat2":"Heliports","cat1":"Transportation","cat3":" ","organizati":"US Geological Survey (USGS) & LA County","addrln1":" ","addrln2":" ","city":"Los Angeles","state":"CA","zip":"90067","source":"HSIP Freedom Airports_Heliports","source_id":"3298836","source_dat":"2020-07-14 23:14:58","display":"Y","last_updat":"12\/30\/1899 0:00:00","Latitude":34.06083793,"Longitude":-118.41756698},{"name":"J H Snyder Company Iii Heliport","label":"J H Snyder Company Iii Heliport","cat2":"Heliports","cat1":"Transportation","cat3":" ","organizati":"US Geological Survey (USGS) & LA County","addrln1":" ","addrln2":" ","city":"Los Angeles","state":"CA","zip":"90036","source":"HSIP Freedom Airports_Heliports","source_id":"3298837","source_dat":"2020-07-14 23:14:58","display":"Y","last_updat":"12\/30\/1899 0:00:00","Latitude":34.06250543,"Longitude":-118.35228699},{"name":"Randy Champe-Gary Howe Memorial","label":"Randy Champe-Gary Howe Memorial","cat2":"Heliports","cat1":"Transportation","cat3":" ","organizati":"US Geological Survey (USGS) & LA County","addrln1":" ","addrln2":" ","city":"Los Angeles","state":"CA","zip":"90003","source":"HSIP Freedom Airports_Heliports","source_id":"3298838","source_dat":"2020-07-14 23:14:58","display":"Y","last_updat":"12\/30\/1899 0:00:00","Latitude":33.95832849,"Longitude":-118.27721001},{"name":"Boeing Canoga Park","label":"Boeing Canoga Park","cat2":"Heliports","cat1":"Transportation","cat3":" ","organizati":"US Geological Survey (USGS) & LA County","addrln1":" ","addrln2":" ","city":"Los Angeles","state":"CA","zip":"90807","source":"HSIP Freedom Airports_Heliports","source_id":"3298839","source_dat":"2020-07-14 23:14:58","display":"Y","last_updat":"12\/30\/1899 0:00:00","Latitude":34.18833321,"Longitude":-118.60090744},{"name":"Pacoima Dam","label":"Pacoima Dam","cat2":"Heliports","cat1":"Transportation","cat3":" ","organizati":"US Geological Survey (USGS) & LA County","addrln1":" ","addrln2":" ","city":"Los Angeles","state":"CA","zip":"91808","source":"HSIP Freedom Airports_Heliports","source_id":"3298840","source_dat":"2020-07-14 23:14:58","display":"Y","last_updat":"12\/30\/1899 0:00:00","Latitude":34.33360623,"Longitude":-118.39748776},{"name":"St Francis Medical Center Helistop","label":"St Francis Medical Center Helistop","cat2":"Heliports","cat1":"Transportation","cat3":" ","organizati":"US Geological Survey (USGS) & LA County","addrln1":" ","addrln2":" ","city":"Lynwood","state":"CA","zip":"90262","source":"HSIP Freedom Airports_Heliports","source_id":"3298841","source_dat":"2020-07-14 23:14:58","display":"Y","last_updat":"12\/30\/1899 0:00:00","Latitude":33.93028794,"Longitude":-118.20255893},{"name":"Malibu Administrative Center","label":"Malibu Administrative Center","cat2":"Heliports","cat1":"Transportation","cat3":" ","organizati":"US Geological Survey (USGS) & LA County","addrln1":" ","addrln2":" ","city":"Malibu","state":"CA","zip":"91754","source":"HSIP Freedom Airports_Heliports","source_id":"3298842","source_dat":"2020-07-14 23:14:58","display":"Y","last_updat":"12\/30\/1899 0:00:00","Latitude":34.03722489,"Longitude":-118.68812854},{"name":"Anacapa View Estates","label":"Anacapa View Estates","cat2":"Heliports","cat1":"Transportation","cat3":" ","organizati":"US Geological Survey (USGS) & LA County","addrln1":" ","addrln2":" ","city":"Malibu","state":"CA","zip":"90265","source":"HSIP Freedom Airports_Heliports","source_id":"3298843","source_dat":"2020-07-14 23:14:58","display":"Y","last_updat":"12\/30\/1899 0:00:00","Latitude":34.04166935,"Longitude":-118.85313491},{"name":"Camp 8 Heliport","label":"Camp 8 Heliport","cat2":"Heliports","cat1":"Transportation","cat3":" ","organizati":"US Geological Survey (USGS) & LA County","addrln1":" ","addrln2":" ","city":"Malibu","state":"CA","zip":"90265","source":"HSIP Freedom Airports_Heliports","source_id":"3298844","source_dat":"2020-07-14 23:14:58","display":"Y","last_updat":"12\/30\/1899 0:00:00","Latitude":34.06194684,"Longitude":-118.64701694},{"name":"Hughes-Malibu Heliport","label":"Hughes-Malibu Heliport","cat2":"Heliports","cat1":"Transportation","cat3":" ","organizati":"US Geological Survey (USGS) & LA County","addrln1":" ","addrln2":" ","city":"Malibu","state":"CA","zip":"91409","source":"HSIP Freedom Airports_Heliports","source_id":"3298845","source_dat":"2020-07-14 23:14:58","display":"Y","last_updat":"12\/30\/1899 0:00:00","Latitude":34.04444684,"Longitude":-118.69396274},{"name":"Trw Manhattan Beach","label":"Trw Manhattan Beach","cat2":"Heliports","cat1":"Transportation","cat3":" ","organizati":"US Geological Survey (USGS) & LA County","addrln1":" ","addrln2":" ","city":"Manhattan Beach","state":"CA","zip":"90278","source":"HSIP Freedom Airports_Heliports","source_id":"3298846","source_dat":"2020-07-14 23:14:58","display":"Y","last_updat":"12\/30\/1899 0:00:00","Latitude":33.8969535,"Longitude":-118.3828403},{"name":"The Ritz-Carlton Hotel Company","label":"The Ritz-Carlton Hotel Company","cat2":"Heliports","cat1":"Transportation","cat3":" ","organizati":"US Geological Survey (USGS) & LA County","addrln1":" ","addrln2":" ","city":"Marina Del Rey","state":"GA","zip":"30326","source":"HSIP Freedom Airports_Heliports","source_id":"3298847","source_dat":"2020-07-14 23:14:58","display":"Y","last_updat":"12\/30\/1899 0:00:00","Latitude":33.98445099,"Longitude":-118.45006638},{"name":"Los Angeles County Fire Station Nr 123","label":"Los Angeles County Fire Station Nr 123","cat2":"Heliports","cat1":"Transportation","cat3":" ","organizati":"US Geological Survey (USGS) & LA County","addrln1":" ","addrln2":" ","city":"Newhall","state":"CA","zip":"90063","source":"HSIP Freedom Airports_Heliports","source_id":"3298848","source_dat":"2020-07-14 23:14:58","display":"Y","last_updat":"12\/30\/1899 0:00:00","Latitude":34.38165929,"Longitude":-118.41451386},{"name":"Sce Pardee Substation Helistop","label":"Sce Pardee Substation Helistop","cat2":"Heliports","cat1":"Transportation","cat3":" ","organizati":"US Geological Survey (USGS) & LA County","addrln1":" ","addrln2":" ","city":"Newhall","state":"CA","zip":"91355","source":"HSIP Freedom Airports_Heliports","source_id":"3298849","source_dat":"2020-07-14 23:14:58","display":"Y","last_updat":"12\/30\/1899 0:00:00","Latitude":34.43860151,"Longitude":-118.57924082},{"name":"Southeast Superior Court","label":"Southeast Superior Court","cat2":"Heliports","cat1":"Transportation","cat3":" ","organizati":"US Geological Survey (USGS) & LA County","addrln1":" ","addrln2":" ","city":"Norwalk","state":"CA","zip":"91754","source":"HSIP Freedom Airports_Heliports","source_id":"3298850","source_dat":"2020-07-14 23:14:58","display":"Y","last_updat":"12\/30\/1899 0:00:00","Latitude":33.91362043,"Longitude":-118.07310925},{"name":"Norwalk Sheriff Station","label":"Norwalk Sheriff Station","cat2":"Heliports","cat1":"Transportation","cat3":" ","organizati":"US Geological Survey (USGS) & LA County","addrln1":" ","addrln2":" ","city":"Norwalk","state":"CA","zip":"91754","source":"HSIP Freedom Airports_Heliports","source_id":"3298851","source_dat":"2020-07-14 23:14:59","display":"Y","last_updat":"12\/30\/1899 0:00:00","Latitude":33.91334237,"Longitude":-118.06977615},{"name":"Barton Heliport","label":"Barton Heliport","cat2":"Heliports","cat1":"Transportation","cat3":" ","organizati":"US Geological Survey (USGS) & LA County","addrln1":" ","addrln2":" ","city":"Pacoima","state":"CA","zip":"91331","source":"HSIP Freedom Airports_Heliports","source_id":"3298852","source_dat":"2020-07-14 23:14:59","display":"Y","last_updat":"12\/30\/1899 0:00:00","Latitude":34.25971985,"Longitude":-118.41340307},{"name":"Northrop Palos Verdes","label":"Northrop Palos Verdes","cat2":"Heliports","cat1":"Transportation","cat3":" ","organizati":"US Geological Survey (USGS) & LA County","addrln1":" ","addrln2":" ","city":"Palos Verdes","state":"CA","zip":"90250","source":"HSIP Freedom Airports_Heliports","source_id":"3298853","source_dat":"2020-07-14 23:14:59","display":"Y","last_updat":"12\/30\/1899 0:00:00","Latitude":33.76056712,"Longitude":-118.38839391},{"name":"Mesa","label":"Mesa","cat2":"Heliports","cat1":"Transportation","cat3":" ","organizati":"US Geological Survey (USGS) & LA County","addrln1":" ","addrln2":" ","city":"Pasadena","state":"CA","zip":"91109","source":"HSIP Freedom Airports_Heliports","source_id":"3298854","source_dat":"2020-07-14 23:14:59","display":"Y","last_updat":"12\/30\/1899 0:00:00","Latitude":34.20472206,"Longitude":-118.17089341},{"name":"Huntington Memorial Hospital","label":"Huntington Memorial Hospital","cat2":"Heliports","cat1":"Transportation","cat3":" ","organizati":"US Geological Survey (USGS) & LA County","addrln1":" ","addrln2":" ","city":"Pasadena","state":"CA","zip":"91109","source":"HSIP Freedom Airports_Heliports","source_id":"3298855","source_dat":"2020-07-14 23:14:59","display":"Y","last_updat":"12\/30\/1899 0:00:00","Latitude":34.1336418,"Longitude":-118.15367032},{"name":"Super Bowl","label":"Super Bowl","cat2":"Heliports","cat1":"Transportation","cat3":" ","organizati":"US Geological Survey (USGS) & LA County","addrln1":" ","addrln2":" ","city":"Pasadena","state":"CA","zip":"91107","source":"HSIP Freedom Airports_Heliports","source_id":"3298856","source_dat":"2020-07-14 23:14:59","display":"Y","last_updat":"12\/30\/1899 0:00:00","Latitude":34.17277902,"Longitude":-118.17089062},{"name":"Pomona Police Dept","label":"Pomona Police Dept","cat2":"Heliports","cat1":"Transportation","cat3":" ","organizati":"US Geological Survey (USGS) & LA County","addrln1":" ","addrln2":" ","city":"Pomona","state":"CA","zip":"91750","source":"HSIP Freedom Airports_Heliports","source_id":"3298857","source_dat":"2020-07-14 23:14:59","display":"Y","last_updat":"12\/30\/1899 0:00:00","Latitude":34.05250568,"Longitude":-117.79337959},{"name":"Pomona Superior Court","label":"Pomona Superior Court","cat2":"Heliports","cat1":"Transportation","cat3":" ","organizati":"US Geological Survey (USGS) & LA County","addrln1":" ","addrln2":" ","city":"Pomona","state":"CA","zip":"91754","source":"HSIP Freedom Airports_Heliports","source_id":"3298858","source_dat":"2020-07-14 23:14:59","display":"Y","last_updat":"12\/30\/1899 0:00:00","Latitude":34.50249063,"Longitude":-117.74921506},{"name":"Long Point","label":"Long Point","cat2":"Heliports","cat1":"Transportation","cat3":" ","organizati":"US Geological Survey (USGS) & LA County","addrln1":" ","addrln2":" ","city":"Rancho Palos Verdes","state":"CA","zip":"90274","source":"HSIP Freedom Airports_Heliports","source_id":"3298859","source_dat":"2020-07-14 23:14:59","display":"Y","last_updat":"12\/30\/1899 0:00:00","Latitude":33.73695686,"Longitude":-118.39367201},{"name":"Sce Rosemead","label":"Sce Rosemead","cat2":"Heliports","cat1":"Transportation","cat3":" ","organizati":"US Geological Survey (USGS) & LA County","addrln1":" ","addrln2":" ","city":"Rosemead","state":"CA","zip":"91770","source":"HSIP Freedom Airports_Heliports","source_id":"3298860","source_dat":"2020-07-14 23:14:59","display":"Y","last_updat":"12\/30\/1899 0:00:00","Latitude":34.0511168,"Longitude":-118.08172254},{"name":"Robert D Cloud","label":"Robert D Cloud","cat2":"Heliports","cat1":"Transportation","cat3":" ","organizati":"US Geological Survey (USGS) & LA County","addrln1":" ","addrln2":" ","city":"Rosemead","state":"CA","zip":"91770","source":"HSIP Freedom Airports_Heliports","source_id":"3298861","source_dat":"2020-07-14 23:14:59","display":"Y","last_updat":"12\/30\/1899 0:00:00","Latitude":34.05222792,"Longitude":-118.08061144},{"name":"William Archibald","label":"William Archibald","cat2":"Heliports","cat1":"Transportation","cat3":" ","organizati":"US Geological Survey (USGS) & LA County","addrln1":" ","addrln2":" ","city":"San Dimas","state":"CA","zip":"91773","source":"HSIP Freedom Airports_Heliports","source_id":"3298862","source_dat":"2020-07-14 23:14:59","display":"Y","last_updat":"12\/30\/1899 0:00:00","Latitude":34.10444844,"Longitude":-117.79976898},{"name":"Holy Cross Medical Center","label":"Holy Cross Medical Center","cat2":"Heliports","cat1":"Transportation","cat3":" ","organizati":"US Geological Survey (USGS) & LA County","addrln1":" ","addrln2":" ","city":"San Fernando","state":"CA","zip":"91345","source":"HSIP Freedom Airports_Heliports","source_id":"3298863","source_dat":"2020-07-14 23:14:59","display":"Y","last_updat":"12\/30\/1899 0:00:00","Latitude":34.27971902,"Longitude":-118.46146086},{"name":"Spears","label":"Spears","cat2":"Heliports","cat1":"Transportation","cat3":" ","organizati":"US Geological Survey (USGS) & LA County","addrln1":" ","addrln2":" ","city":"San Fernando","state":"CA","zip":"91392","source":"HSIP Freedom Airports_Heliports","source_id":"3298864","source_dat":"2020-07-14 23:14:59","display":"Y","last_updat":"12\/30\/1899 0:00:00","Latitude":34.31249513,"Longitude":-118.47443215},{"name":"Catalina Air-Sea Terminal","label":"Catalina Air-Sea Terminal","cat2":"Heliports","cat1":"Transportation","cat3":" ","organizati":"US Geological Survey (USGS) & LA County","addrln1":" ","addrln2":" ","city":"San Pedro","state":"CA","zip":"90733","source":"HSIP Freedom Airports_Heliports","source_id":"3298865","source_dat":"2020-07-14 23:14:59","display":"Y","last_updat":"12\/30\/1899 0:00:00","Latitude":33.74918018,"Longitude":-118.27478093},{"name":"Ports O'Call","label":"Ports O'Call","cat2":"Heliports","cat1":"Transportation","cat3":" ","organizati":"US Geological Survey (USGS) & LA County","addrln1":" ","addrln2":" ","city":"San Pedro","state":"CA","zip":"90731","source":"HSIP Freedom Airports_Heliports","source_id":"3298866","source_dat":"2020-07-14 23:14:59","display":"Y","last_updat":"12\/30\/1899 0:00:00","Latitude":33.73209712,"Longitude":-118.27603093},{"name":"Camp 14 Heliport","label":"Camp 14 Heliport","cat2":"Heliports","cat1":"Transportation","cat3":" ","organizati":"US Geological Survey (USGS) & LA County","addrln1":" ","addrln2":" ","city":"Saugus","state":"CA","zip":"91350","source":"HSIP Freedom Airports_Heliports","source_id":"3298867","source_dat":"2020-07-14 23:15:00","display":"Y","last_updat":"12\/30\/1899 0:00:00","Latitude":34.56609593,"Longitude":-118.47673713},{"name":"Boeing Seal Beach (Rooftop)","label":"Boeing Seal Beach (Rooftop)","cat2":"Heliports","cat1":"Transportation","cat3":" ","organizati":"US Geological Survey (USGS) & LA County","addrln1":" ","addrln2":" ","city":"Seal Beach","state":"CA","zip":"90807","source":"HSIP Freedom Airports_Heliports","source_id":"3298868","source_dat":"2020-07-14 23:15:00","display":"Y","last_updat":"12\/30\/1899 0:00:00","Latitude":33.75695656,"Longitude":-118.08755176},{"name":"Rockwell Facility","label":"Rockwell Facility","cat2":"Heliports","cat1":"Transportation","cat3":" ","organizati":"US Geological Survey (USGS) & LA County","addrln1":" ","addrln2":" ","city":"Seal Beach","state":"CA","zip":"90245","source":"HSIP Freedom Airports_Heliports","source_id":"3298869","source_dat":"2020-07-14 23:15:00","display":"Y","last_updat":"12\/30\/1899 0:00:00","Latitude":33.75778989,"Longitude":-118.08477366},{"name":"Boeing Seal Beach (Ground Level)","label":"Boeing Seal Beach (Ground Level)","cat2":"Heliports","cat1":"Transportation","cat3":" ","organizati":"US Geological Survey (USGS) & LA County","addrln1":" ","addrln2":" ","city":"Seal Beach","state":"CA","zip":"90807","source":"HSIP Freedom Airports_Heliports","source_id":"3298870","source_dat":"2020-07-14 23:15:00","display":"Y","last_updat":"12\/30\/1899 0:00:00","Latitude":33.75501211,"Longitude":-118.09338506},{"name":"Sherman Oaks Community Hospital","label":"Sherman Oaks Community Hospital","cat2":"Heliports","cat1":"Transportation","cat3":" ","organizati":"US Geological Survey (USGS) & LA County","addrln1":" ","addrln2":" ","city":"Sherman Oaks","state":"CA","zip":"91436","source":"HSIP Freedom Airports_Heliports","source_id":"3298871","source_dat":"2020-07-14 23:15:00","display":"Y","last_updat":"12\/30\/1899 0:00:00","Latitude":34.16000097,"Longitude":-118.44951357},{"name":"California Title Building Heliport","label":"California Title Building Heliport","cat2":"Heliports","cat1":"Transportation","cat3":" ","organizati":"US Geological Survey (USGS) & LA County","addrln1":" ","addrln2":" ","city":"South Pasadena","state":"CA","zip":"91030","source":"HSIP Freedom Airports_Heliports","source_id":"3298872","source_dat":"2020-07-14 23:15:00","display":"Y","last_updat":"12\/30\/1899 0:00:00","Latitude":34.12389207,"Longitude":-118.15061422},{"name":"Camp 15 Heliport","label":"Camp 15 Heliport","cat2":"Heliports","cat1":"Transportation","cat3":" ","organizati":"US Geological Survey (USGS) & LA County","addrln1":" ","addrln2":" ","city":"Sunland","state":"CA","zip":"91042","source":"HSIP Freedom Airports_Heliports","source_id":"3298873","source_dat":"2020-07-14 23:15:00","display":"Y","last_updat":"12\/30\/1899 0:00:00","Latitude":34.28944068,"Longitude":-118.28812029},{"name":"Merle Norman Cosmetics-Sylmar Heliport","label":"Merle Norman Cosmetics-Sylmar Heliport","cat2":"Heliports","cat1":"Transportation","cat3":" ","organizati":"US Geological Survey (USGS) & LA County","addrln1":" ","addrln2":" ","city":"Sylmar","state":"CA","zip":"91406","source":"HSIP Freedom Airports_Heliports","source_id":"3298874","source_dat":"2020-07-14 23:15:00","display":"Y","last_updat":"12\/30\/1899 0:00:00","Latitude":34.30499569,"Longitude":-118.46451585},{"name":"Olive View Medical Center","label":"Olive View Medical Center","cat2":"Heliports","cat1":"Transportation","cat3":" ","organizati":"US Geological Survey (USGS) & LA County","addrln1":" ","addrln2":" ","city":"Sylmar","state":"CA","zip":"90012","source":"HSIP Freedom Airports_Heliports","source_id":"3298875","source_dat":"2020-07-14 23:15:00","display":"Y","last_updat":"12\/30\/1899 0:00:00","Latitude":34.32679513,"Longitude":-118.44498776},{"name":"Los Angeles County Fire Department","label":"Los Angeles County Fire Department","cat2":"Heliports","cat1":"Transportation","cat3":" ","organizati":"US Geological Survey (USGS) & LA County","addrln1":" ","addrln2":" ","city":"Thousand Oaks","state":"CA","zip":"91331","source":"HSIP Freedom Airports_Heliports","source_id":"3298876","source_dat":"2020-07-14 23:15:00","display":"Y","last_updat":"12\/30\/1899 0:00:00","Latitude":34.08333518,"Longitude":-118.86758131},{"name":"Toyota Helistop","label":"Toyota Helistop","cat2":"Heliports","cat1":"Transportation","cat3":" ","organizati":"US Geological Survey (USGS) & LA County","addrln1":" ","addrln2":" ","city":"Torrance","state":"CA","zip":"90509","source":"HSIP Freedom Airports_Heliports","source_id":"3298877","source_dat":"2020-07-14 23:15:00","display":"Y","last_updat":"12\/30\/1899 0:00:00","Latitude":33.85639795,"Longitude":-118.31256002},{"name":"Cosmodyne","label":"Cosmodyne","cat2":"Heliports","cat1":"Transportation","cat3":" ","organizati":"US Geological Survey (USGS) & LA County","addrln1":" ","addrln2":" ","city":"Torrance","state":"CA","zip":"90503","source":"HSIP Freedom Airports_Heliports","source_id":"3298878","source_dat":"2020-07-14 23:15:00","display":"Y","last_updat":"12\/30\/1899 0:00:00","Latitude":33.84362184,"Longitude":-118.33978341},{"name":"Sheriffs Wayside Heliport","label":"Sheriffs Wayside Heliport","cat2":"Heliports","cat1":"Transportation","cat3":" ","organizati":"US Geological Survey (USGS) & LA County","addrln1":" ","addrln2":" ","city":"Valencia","state":"CA","zip":"91754","source":"HSIP Freedom Airports_Heliports","source_id":"3298879","source_dat":"2020-07-14 23:15:00","display":"Y","last_updat":"12\/30\/1899 0:00:00","Latitude":34.46665595,"Longitude":-118.59535212},{"name":"Sheriffs Station Heliport","label":"Sheriffs Station Heliport","cat2":"Heliports","cat1":"Transportation","cat3":" ","organizati":"US Geological Survey (USGS) & LA County","addrln1":" ","addrln2":" ","city":"Valencia","state":"CA","zip":"91754","source":"HSIP Freedom Airports_Heliports","source_id":"3298880","source_dat":"2020-07-14 23:15:00","display":"Y","last_updat":"12\/30\/1899 0:00:00","Latitude":34.41610234,"Longitude":-118.55173993},{"name":"Sfi-Vernon","label":"Sfi-Vernon","cat2":"Heliports","cat1":"Transportation","cat3":" ","organizati":"US Geological Survey (USGS) & LA County","addrln1":" ","addrln2":" ","city":"Vernon","state":"CA","zip":"90058","source":"HSIP Freedom Airports_Heliports","source_id":"3298881","source_dat":"2020-07-14 23:15:00","display":"Y","last_updat":"12\/30\/1899 0:00:00","Latitude":34.00098126,"Longitude":-118.21283722},{"name":"Veterans Administration Medical Center West Los Angeles Heliport","label":"Veterans Administration Medical Center West Los Angeles Heliport","cat2":"Heliports","cat1":"Transportation","cat3":" ","organizati":"US Geological Survey (USGS) & LA County","addrln1":" ","addrln2":" ","city":"West Los Angeles","state":"CA","zip":"90073","source":"HSIP Freedom Airports_Heliports","source_id":"3298882","source_dat":"2020-07-14 23:15:00","display":"Y","last_updat":"12\/30\/1899 0:00:00","Latitude":34.04916183,"Longitude":-118.45609888},{"name":"Presbyterian Intercommunity Hospital","label":"Presbyterian Intercommunity Hospital","cat2":"Heliports","cat1":"Transportation","cat3":" ","organizati":"US Geological Survey (USGS) & LA County","addrln1":" ","addrln2":" ","city":"Whittier","state":"CA","zip":"90602","source":"HSIP Freedom Airports_Heliports","source_id":"3298883","source_dat":"2020-07-14 23:15:01","display":"Y","last_updat":"12\/30\/1899 0:00:00","Latitude":33.97110625,"Longitude":-118.04901565},{"name":"Prudential Helistop","label":"Prudential Helistop","cat2":"Heliports","cat1":"Transportation","cat3":" ","organizati":"US Geological Survey (USGS) & LA County","addrln1":" ","addrln2":" ","city":"Woodland Hills","state":"NJ","zip":"7107","source":"HSIP Freedom Airports_Heliports","source_id":"3298884","source_dat":"2020-07-14 23:15:01","display":"Y","last_updat":"12\/30\/1899 0:00:00","Latitude":34.17555571,"Longitude":-118.59507414},{"name":"Warner Center Plaza One","label":"Warner Center Plaza One","cat2":"Heliports","cat1":"Transportation","cat3":" ","organizati":"US Geological Survey (USGS) & LA County","addrln1":" ","addrln2":" ","city":"Woodland Hills","state":"CA","zip":"91367","source":"HSIP Freedom Airports_Heliports","source_id":"3298885","source_dat":"2020-07-14 23:15:01","display":"Y","last_updat":"12\/30\/1899 0:00:00","Latitude":34.17888904,"Longitude":-118.59924024},{"name":"Catalina Airport","label":"Catalina Airport","cat2":"Heliports","cat1":"Transportation","cat3":" ","organizati":"US Geological Survey (USGS) & LA County","addrln1":" ","addrln2":" ","city":" ","state":" ","zip":" ","source":"HSIP Freedom Gnis_structures","source_id":"3305445","source_dat":"2020-07-14 23:24:12","display":"Y","last_updat":"12\/30\/1899 0:00:00","Latitude":33.40474493,"Longitude":-118.41673074},{"name":"Two Harbors Amphibious Terminal Seaplane Base","label":"Two Harbors Amphibious Terminal Seaplane Base","cat2":"Heliports","cat1":"Transportation","cat3":" ","organizati":"US Geological Survey (USGS) & LA County","addrln1":" ","addrln2":" ","city":" ","state":" ","zip":" ","source":"HSIP Freedom Gnis_structures","source_id":"3305446","source_dat":"2020-07-14 23:24:12","display":"Y","last_updat":"12\/30\/1899 0:00:00","Latitude":33.43224443,"Longitude":-118.50895642},{"name":"Pebbly Beach Seaplane Base","label":"Pebbly Beach Seaplane Base","cat2":"Heliports","cat1":"Transportation","cat3":" ","organizati":"US Geological Survey (USGS) & LA County","addrln1":" ","addrln2":" ","city":" ","state":" ","zip":" ","source":"HSIP Freedom Gnis_structures","source_id":"3305447","source_dat":"2020-07-14 23:24:12","display":"Y","last_updat":"12\/30\/1899 0:00:00","Latitude":33.33835733,"Longitude":-118.31283786},{"name":"Avalon Bay Seaplane Base","label":"Avalon Bay Seaplane Base","cat2":"Heliports","cat1":"Transportation","cat3":" ","organizati":"US Geological Survey (USGS) & LA County","addrln1":" ","addrln2":" ","city":" ","state":" ","zip":" ","source":"HSIP Freedom Gnis_structures","source_id":"3305448","source_dat":"2020-07-14 23:24:12","display":"Y","last_updat":"12\/30\/1899 0:00:00","Latitude":33.34169063,"Longitude":-118.31700476},{"name":"Westlake Medical Center Heliport","label":"Westlake Medical Center Heliport","cat2":"Heliports","cat1":"Transportation","cat3":" ","organizati":"US Geological Survey (USGS) & LA County","addrln1":" ","addrln2":" ","city":" ","state":" ","zip":" ","source":"HSIP Freedom Gnis_structures","source_id":"3305449","source_dat":"2020-07-14 23:24:12","display":"Y","last_updat":"12\/30\/1899 0:00:00","Latitude":34.14166757,"Longitude":-118.81841341},{"name":"Santa Monica Municipal Airport","label":"Santa Monica Municipal Airport","cat2":"Heliports","cat1":"Transportation","cat3":" ","organizati":"US Geological Survey (USGS) & LA County","addrln1":" ","addrln2":" ","city":" ","state":" ","zip":" ","source":"HSIP Freedom Gnis_structures","source_id":"3305450","source_dat":"2020-07-14 23:24:12","display":"Y","last_updat":"12\/30\/1899 0:00:00","Latitude":34.01556136,"Longitude":-118.45201118},{"name":"Ri Ai Canoga Park G\/L Helistop","label":"Ri Ai Canoga Park G\/L Helistop","cat2":"Heliports","cat1":"Transportation","cat3":" ","organizati":"US Geological Survey (USGS) & LA County","addrln1":" ","addrln2":" ","city":" ","state":" ","zip":" ","source":"HSIP Freedom Gnis_structures","source_id":"3305451","source_dat":"2020-07-14 23:24:13","display":"Y","last_updat":"12\/30\/1899 0:00:00","Latitude":34.23471734,"Longitude":-118.58526554},{"name":"Ri Rd Canoga Park G\/L Heliport","label":"Ri Rd Canoga Park G\/L Heliport","cat2":"Heliports","cat1":"Transportation","cat3":" ","organizati":"US Geological Survey (USGS) & LA County","addrln1":" ","addrln2":" ","city":" ","state":" ","zip":" ","source":"HSIP Freedom Gnis_structures","source_id":"3305452","source_dat":"2020-07-14 23:24:13","display":"Y","last_updat":"12\/30\/1899 0:00:00","Latitude":34.18832845,"Longitude":-118.60082104},{"name":"Van Nuys Airport","label":"Van Nuys Airport","cat2":"Heliports","cat1":"Transportation","cat3":" ","organizati":"US Geological Survey (USGS) & LA County","addrln1":" ","addrln2":" ","city":" ","state":" ","zip":" ","source":"HSIP Freedom Gnis_structures","source_id":"3305453","source_dat":"2020-07-14 23:24:13","display":"Y","last_updat":"12\/30\/1899 0:00:00","Latitude":34.20972154,"Longitude":-118.49062746},{"name":"West Valley Area Heliport","label":"West Valley Area Heliport","cat2":"Heliports","cat1":"Transportation","cat3":" ","organizati":"US Geological Survey (USGS) & LA County","addrln1":" ","addrln2":" ","city":" ","state":" ","zip":" ","source":"HSIP Freedom Gnis_structures","source_id":"3305454","source_dat":"2020-07-14 23:24:13","display":"Y","last_updat":"12\/30\/1899 0:00:00","Latitude":34.19388875,"Longitude":-118.54812875},{"name":"Burbank-Glendale-Pasadena Airport","label":"Burbank-Glendale-Pasadena Airport","cat2":"Heliports","cat1":"Transportation","cat3":" ","organizati":"US Geological Survey (USGS) & LA County","addrln1":" ","addrln2":" ","city":" ","state":" ","zip":" ","source":"HSIP Freedom Gnis_structures","source_id":"3305455","source_dat":"2020-07-14 23:24:15","display":"Y","last_updat":"12\/30\/1899 0:00:00","Latitude":34.20055563,"Longitude":-118.35923368},{"name":"Saint Joseph Medical Center Heliport","label":"Saint Joseph Medical Center Heliport","cat2":"Heliports","cat1":"Transportation","cat3":" ","organizati":"US Geological Survey (USGS) & LA County","addrln1":" ","addrln2":" ","city":" ","state":" ","zip":" ","source":"HSIP Freedom Gnis_structures","source_id":"3305456","source_dat":"2020-07-14 23:24:15","display":"Y","last_updat":"12\/30\/1899 0:00:00","Latitude":34.15555754,"Longitude":-118.32978759},{"name":"Saint Vincent Professional Office Building Heliport","label":"Saint Vincent Professional Office Building Heliport","cat2":"Heliports","cat1":"Transportation","cat3":" ","organizati":"US Geological Survey (USGS) & LA County","addrln1":" ","addrln2":" ","city":" ","state":" ","zip":" ","source":"HSIP Freedom Gnis_structures","source_id":"3305457","source_dat":"2020-07-14 23:24:15","display":"Y","last_updat":"12\/30\/1899 0:00:00","Latitude":34.06389524,"Longitude":-118.27339591},{"name":"Whiteman Airport","label":"Whiteman Airport","cat2":"Heliports","cat1":"Transportation","cat3":" ","organizati":"US Geological Survey (USGS) & LA County","addrln1":" ","addrln2":" ","city":" ","state":" ","zip":" ","source":"HSIP Freedom Gnis_structures","source_id":"3305458","source_dat":"2020-07-14 23:24:19","display":"Y","last_updat":"12\/30\/1899 0:00:00","Latitude":34.25971993,"Longitude":-118.41423647},{"name":"Lake View Medical Center Heliport","label":"Lake View Medical Center Heliport","cat2":"Heliports","cat1":"Transportation","cat3":" ","organizati":"US Geological Survey (USGS) & LA County","addrln1":" ","addrln2":" ","city":" ","state":" ","zip":" ","source":"HSIP Freedom Gnis_structures","source_id":"3305459","source_dat":"2020-07-14 23:24:19","display":"Y","last_updat":"12\/30\/1899 0:00:00","Latitude":34.28110793,"Longitude":-118.38479097},{"name":"Security Pacific Plaza Heliport","label":"Security Pacific Plaza Heliport","cat2":"Heliports","cat1":"Transportation","cat3":" ","organizati":"US Geological Survey (USGS) & LA County","addrln1":" ","addrln2":" ","city":" ","state":" ","zip":" ","source":"HSIP Freedom Gnis_structures","source_id":"3305460","source_dat":"2020-07-14 23:24:20","display":"Y","last_updat":"12\/30\/1899 0:00:00","Latitude":34.05361814,"Longitude":-118.25422851},{"name":"Pacific Bell Heliport","label":"Pacific Bell Heliport","cat2":"Heliports","cat1":"Transportation","cat3":" ","organizati":"US Geological Survey (USGS) & LA County","addrln1":" ","addrln2":" ","city":" ","state":" ","zip":" ","source":"HSIP Freedom Gnis_structures","source_id":"3305461","source_dat":"2020-07-14 23:24:20","display":"Y","last_updat":"12\/30\/1899 0:00:00","Latitude":34.05556244,"Longitude":-118.26228441},{"name":"Arco Plaza Heliport","label":"Arco Plaza Heliport","cat2":"Heliports","cat1":"Transportation","cat3":" ","organizati":"US Geological Survey (USGS) & LA County","addrln1":" ","addrln2":" ","city":" ","state":" ","zip":" ","source":"HSIP Freedom Gnis_structures","source_id":"3305462","source_dat":"2020-07-14 23:24:20","display":"Y","last_updat":"12\/30\/1899 0:00:00","Latitude":34.05139604,"Longitude":-118.25783971},{"name":"Sheriffs Headquarters - Temple And Grand Heliport","label":"Sheriffs Headquarters - Temple And Grand Heliport","cat2":"Heliports","cat1":"Transportation","cat3":" ","organizati":"US Geological Survey (USGS) & LA County","addrln1":" ","addrln2":" ","city":" ","state":" ","zip":" ","source":"HSIP Freedom Gnis_structures","source_id":"3305463","source_dat":"2020-07-14 23:24:21","display":"Y","last_updat":"12\/30\/1899 0:00:00","Latitude":34.05861794,"Longitude":-118.24645061},{"name":"Goodyear Blimp Base Airport","label":"Goodyear Blimp Base Airport","cat2":"Heliports","cat1":"Transportation","cat3":" ","organizati":"US Geological Survey (USGS) & LA County","addrln1":" ","addrln2":" ","city":" ","state":" ","zip":" ","source":"HSIP Freedom Gnis_structures","source_id":"3305464","source_dat":"2020-07-14 23:24:25","display":"Y","last_updat":"12\/30\/1899 0:00:00","Latitude":33.85640057,"Longitude":-118.27811572},{"name":"San Pedro Peninsula Hospital Heliport","label":"San Pedro Peninsula Hospital Heliport","cat2":"Heliports","cat1":"Transportation","cat3":" ","organizati":"US Geological Survey (USGS) & LA County","addrln1":" ","addrln2":" ","city":" ","state":" ","zip":" ","source":"HSIP Freedom Gnis_structures","source_id":"3305465","source_dat":"2020-07-14 23:24:25","display":"Y","last_updat":"12\/30\/1899 0:00:00","Latitude":33.73862448,"Longitude":-118.31144833},{"name":"Zamperini Field","label":"Zamperini Field","cat2":"Heliports","cat1":"Transportation","cat3":" ","organizati":"US Geological Survey (USGS) & LA County","addrln1":" ","addrln2":" ","city":" ","state":" ","zip":" ","source":"HSIP Freedom Gnis_structures","source_id":"3305466","source_dat":"2020-07-14 23:24:25","display":"Y","last_updat":"12\/30\/1899 0:00:00","Latitude":33.80334498,"Longitude":-118.34033832},{"name":"South Bay Hospital Heliport","label":"South Bay Hospital Heliport","cat2":"Heliports","cat1":"Transportation","cat3":" ","organizati":"US Geological Survey (USGS) & LA County","addrln1":" ","addrln2":" ","city":" ","state":" ","zip":" ","source":"HSIP Freedom Gnis_structures","source_id":"3305467","source_dat":"2020-07-14 23:24:25","display":"Y","last_updat":"12\/30\/1899 0:00:00","Latitude":33.85278787,"Longitude":-118.38228451},{"name":"Hawthorne Municipal Airport","label":"Hawthorne Municipal Airport","cat2":"Heliports","cat1":"Transportation","cat3":" ","organizati":"US Geological Survey (USGS) & LA County","addrln1":" ","addrln2":" ","city":" ","state":" ","zip":" ","source":"HSIP Freedom Gnis_structures","source_id":"3305468","source_dat":"2020-07-14 23:24:26","display":"Y","last_updat":"12\/30\/1899 0:00:00","Latitude":33.92278736,"Longitude":-118.33589571},{"name":"Compton \/ Woodley Heliport","label":"Compton \/ Woodley Heliport","cat2":"Heliports","cat1":"Transportation","cat3":" ","organizati":"US Geological Survey (USGS) & LA County","addrln1":" ","addrln2":" ","city":" ","state":" ","zip":" ","source":"HSIP Freedom Gnis_structures","source_id":"3305469","source_dat":"2020-07-14 23:24:31","display":"Y","last_updat":"12\/30\/1899 0:00:00","Latitude":33.88905344,"Longitude":-118.24161028},{"name":"Saint Francis Medical Center Helistop","label":"Saint Francis Medical Center Helistop","cat2":"Heliports","cat1":"Transportation","cat3":" ","organizati":"US Geological Survey (USGS) & LA County","addrln1":" ","addrln2":" ","city":" ","state":" ","zip":" ","source":"HSIP Freedom Gnis_structures","source_id":"3305470","source_dat":"2020-07-14 23:24:31","display":"Y","last_updat":"12\/30\/1899 0:00:00","Latitude":33.93028815,"Longitude":-118.20339223},{"name":"Pacific Electric Building Heliport","label":"Pacific Electric Building Heliport","cat2":"Heliports","cat1":"Transportation","cat3":" ","organizati":"US Geological Survey (USGS) & LA County","addrln1":" ","addrln2":" ","city":" ","state":" ","zip":" ","source":"HSIP Freedom Gnis_structures","source_id":"3305471","source_dat":"2020-07-14 23:24:33","display":"Y","last_updat":"12\/30\/1899 0:00:00","Latitude":34.04445195,"Longitude":-118.25006171},{"name":"R I Sd Downey Helistop","label":"R I Sd Downey Helistop","cat2":"Heliports","cat1":"Transportation","cat3":" ","organizati":"US Geological Survey (USGS) & LA County","addrln1":" ","addrln2":" ","city":" ","state":" ","zip":" ","source":"HSIP Freedom Gnis_structures","source_id":"3305472","source_dat":"2020-07-14 23:24:36","display":"Y","last_updat":"12\/30\/1899 0:00:00","Latitude":33.92334295,"Longitude":-118.12727844},{"name":"Long Beach Airport","label":"Long Beach Airport","cat2":"Heliports","cat1":"Transportation","cat3":" ","organizati":"US Geological Survey (USGS) & LA County","addrln1":" ","addrln2":" ","city":" ","state":" ","zip":" ","source":"HSIP Freedom Gnis_structures","source_id":"3305473","source_dat":"2020-07-14 23:24:37","display":"Y","last_updat":"12\/30\/1899 0:00:00","Latitude":33.81751177,"Longitude":-118.15227755},{"name":"Saint Mary Medical Center Heliport","label":"Saint Mary Medical Center Heliport","cat2":"Heliports","cat1":"Transportation","cat3":" ","organizati":"US Geological Survey (USGS) & LA County","addrln1":" ","addrln2":" ","city":" ","state":" ","zip":" ","source":"HSIP Freedom Gnis_structures","source_id":"3305474","source_dat":"2020-07-14 23:24:37","display":"Y","last_updat":"12\/30\/1899 0:00:00","Latitude":33.77890167,"Longitude":-118.18672264},{"name":"Methodist Hospital Heliport","label":"Methodist Hospital Heliport","cat2":"Heliports","cat1":"Transportation","cat3":" ","organizati":"US Geological Survey (USGS) & LA County","addrln1":" ","addrln2":" ","city":" ","state":" ","zip":" ","source":"HSIP Freedom Gnis_structures","source_id":"3305475","source_dat":"2020-07-14 23:24:41","display":"Y","last_updat":"12\/30\/1899 0:00:00","Latitude":34.13333572,"Longitude":-118.04338854},{"name":"Sce Headquarters Heliport","label":"Sce Headquarters Heliport","cat2":"Heliports","cat1":"Transportation","cat3":" ","organizati":"US Geological Survey (USGS) & LA County","addrln1":" ","addrln2":" ","city":" ","state":" ","zip":" ","source":"HSIP Freedom Gnis_structures","source_id":"3305476","source_dat":"2020-07-14 23:24:41","display":"Y","last_updat":"12\/30\/1899 0:00:00","Latitude":34.05221734,"Longitude":-118.08054344},{"name":"San Gabriel Valley Airport","label":"San Gabriel Valley Airport","cat2":"Heliports","cat1":"Transportation","cat3":" ","organizati":"US Geological Survey (USGS) & LA County","addrln1":" ","addrln2":" ","city":" ","state":" ","zip":" ","source":"HSIP Freedom Gnis_structures","source_id":"3305477","source_dat":"2020-07-14 23:24:41","display":"Y","last_updat":"12\/30\/1899 0:00:00","Latitude":34.08583743,"Longitude":-118.03561035},{"name":"Brackett Field","label":"Brackett Field","cat2":"Heliports","cat1":"Transportation","cat3":" ","organizati":"US Geological Survey (USGS) & LA County","addrln1":" ","addrln2":" ","city":" ","state":" ","zip":" ","source":"HSIP Freedom Gnis_structures","source_id":"3305478","source_dat":"2020-07-14 23:24:41","display":"Y","last_updat":"12\/30\/1899 0:00:00","Latitude":34.09139351,"Longitude":-117.78254609},{"name":"Agua Dulce Airpark","label":"Agua Dulce Airpark","cat2":"Heliports","cat1":"Transportation","cat3":" ","organizati":"US Geological Survey (USGS) & LA County","addrln1":" ","addrln2":" ","city":" ","state":" ","zip":" ","source":"HSIP Freedom Gnis_structures","source_id":"3305479","source_dat":"2020-07-14 23:24:46","display":"Y","last_updat":"12\/30\/1899 0:00:00","Latitude":34.5038764,"Longitude":-118.31367786},{"name":"Nichols Farms Airport","label":"Nichols Farms Airport","cat2":"Heliports","cat1":"Transportation","cat3":" ","organizati":"US Geological Survey (USGS) & LA County","addrln1":" ","addrln2":" ","city":" ","state":" ","zip":" ","source":"HSIP Freedom Gnis_structures","source_id":"3305480","source_dat":"2020-07-14 23:24:46","display":"Y","last_updat":"12\/30\/1899 0:00:00","Latitude":34.58859766,"Longitude":-117.82671814},{"name":"Brian Ranch Airport","label":"Brian Ranch Airport","cat2":"Heliports","cat1":"Transportation","cat3":" ","organizati":"US Geological Survey (USGS) & LA County","addrln1":" ","addrln2":" ","city":" ","state":" ","zip":" ","source":"HSIP Freedom Gnis_structures","source_id":"3305481","source_dat":"2020-07-14 23:24:46","display":"Y","last_updat":"12\/30\/1899 0:00:00","Latitude":34.51499007,"Longitude":-117.76282716},{"name":"Quail Lake Sky Park","label":"Quail Lake Sky Park","cat2":"Heliports","cat1":"Transportation","cat3":" ","organizati":"US Geological Survey (USGS) & LA County","addrln1":" ","addrln2":" ","city":" ","state":" ","zip":" ","source":"HSIP Freedom Gnis_structures","source_id":"3305482","source_dat":"2020-07-14 23:24:46","display":"Y","last_updat":"12\/30\/1899 0:00:00","Latitude":34.76747559,"Longitude":-118.73257827},{"name":"Bohunks Airpark","label":"Bohunks Airpark","cat2":"Heliports","cat1":"Transportation","cat3":" ","organizati":"US Geological Survey (USGS) & LA County","addrln1":" ","addrln2":" ","city":" ","state":" ","zip":" ","source":"HSIP Freedom Gnis_structures","source_id":"3305483","source_dat":"2020-07-14 23:24:46","display":"Y","last_updat":"12\/30\/1899 0:00:00","Latitude":34.69442398,"Longitude":-118.28395355},{"name":"Little Buttes Antique Airfield","label":"Little Buttes Antique Airfield","cat2":"Heliports","cat1":"Transportation","cat3":" ","organizati":"US Geological Survey (USGS) & LA County","addrln1":" ","addrln2":" ","city":" ","state":" ","zip":" ","source":"HSIP Freedom Gnis_structures","source_id":"3305484","source_dat":"2020-07-14 23:24:46","display":"Y","last_updat":"12\/30\/1899 0:00:00","Latitude":34.79386437,"Longitude":-118.27839784},{"name":"General William J Fox Airfield","label":"General William J Fox Airfield","cat2":"Heliports","cat1":"Transportation","cat3":" ","organizati":"US Geological Survey (USGS) & LA County","addrln1":" ","addrln2":" ","city":" ","state":" ","zip":" ","source":"HSIP Freedom Gnis_structures","source_id":"3305485","source_dat":"2020-07-14 23:24:46","display":"Y","last_updat":"12\/30\/1899 0:00:00","Latitude":34.74081117,"Longitude":-118.21978466},{"name":"Crystal Airport","label":"Crystal Airport","cat2":"Heliports","cat1":"Transportation","cat3":" ","organizati":"US Geological Survey (USGS) & LA County","addrln1":" ","addrln2":" ","city":" ","state":" ","zip":" ","source":"HSIP Freedom Gnis_structures","source_id":"3305486","source_dat":"2020-07-14 23:24:46","display":"Y","last_updat":"12\/30\/1899 0:00:00","Latitude":34.49054607,"Longitude":-117.82449555},{"name":"Palmdale Regional Airport (Heliport)","label":"Palmdale Regional Airport (Heliport)","cat2":"Heliports","cat1":"Transportation","cat3":" ","organizati":"US Geological Survey (USGS) & LA County","addrln1":" ","addrln2":" ","city":" ","state":" ","zip":" ","source":"HSIP Freedom Gnis_structures","source_id":"3305487","source_dat":"2020-07-14 23:24:47","display":"Y","last_updat":"12\/30\/1899 0:00:00","Latitude":34.62555067,"Longitude":-118.08748779},{"name":"Gray Butte Field","label":"Gray Butte Field","cat2":"Heliports","cat1":"Transportation","cat3":" ","organizati":"US Geological Survey (USGS) & LA County","addrln1":" ","addrln2":" ","city":" ","state":" ","zip":" ","source":"HSIP Freedom Gnis_structures","source_id":"3305488","source_dat":"2020-07-14 23:24:47","display":"Y","last_updat":"12\/30\/1899 0:00:00","Latitude":34.56526555,"Longitude":-117.67476807},{"name":"Union Station","label":"Union Station","cat2":"Metrolink Stations","cat1":"Transportation","cat3":" ","organizati":"LA County","addrln1":"800 N. Alameda St.","addrln2":" ","city":"Los Angeles","state":"CA","zip":"90012","source":"Metropolitan Transportation Authority (MTA)","source_id":"1054069001","source_dat":"6\/4\/2013","display":"Y","last_updat":"12\/30\/1899 0:00:00","Latitude":34.05605013,"Longitude":-118.23642823},{"name":"Riverside-La Sierra Metrolink Station","label":"Riverside-La Sierra","cat2":"Metrolink Stations","cat1":"Transportation","cat3":" ","organizati":"Metropolitan Transit Authority (MTA)","addrln1":"10901 Indiana Avenue","addrln2":" ","city":"COUNTY","state":" ","zip":" ","source":"Metropolitan Transportation Authority (MTA)","source_id":"LAS","source_dat":"5\/3\/2011","display":"Y","last_updat":"12\/30\/1899 0:00:00","Latitude":33.89952569,"Longitude":-117.47077856},{"name":"West Corona Metrolink Station","label":"West Corona","cat2":"Metrolink Stations","cat1":"Transportation","cat3":" ","organizati":"Metropolitan Transit Authority (MTA)","addrln1":"155 S. Auto Center Dr.","addrln2":" ","city":"CORONA","state":" ","zip":" ","source":"Metropolitan Transportation Authority (MTA)","source_id":"WCR","source_dat":"5\/3\/2011","display":"Y","last_updat":"12\/30\/1899 0:00:00","Latitude":33.88531404,"Longitude":-117.61397063},{"name":"Anaheim Canyon Metrolink Station","label":"Anaheim Canyon","cat2":"Metrolink Stations","cat1":"Transportation","cat3":" ","organizati":"Metropolitan Transit Authority (MTA)","addrln1":"1039 N. Pacificenter Drive","addrln2":" ","city":"ANAHEIM","state":" ","zip":" ","source":"Metropolitan Transportation Authority (MTA)","source_id":"CYN","source_dat":"5\/3\/2011","display":"Y","last_updat":"12\/30\/1899 0:00:00","Latitude":33.85346233,"Longitude":-117.8401418},{"name":"North Main Corona Metrolink Station","label":"North Main Corona","cat2":"Metrolink Stations","cat1":"Transportation","cat3":" ","organizati":"Metropolitan Transit Authority (MTA)","addrln1":" ","addrln2":" ","city":"CORONA","state":" ","zip":" ","source":"Metropolitan Transportation Authority (MTA)","source_id":"NMC","source_dat":"5\/3\/2011","display":"Y","last_updat":"12\/30\/1899 0:00:00","Latitude":33.8821841,"Longitude":-117.56303054},{"name":"Commerce Metrolink Station","label":"Commerce","cat2":"Metrolink Stations","cat1":"Transportation","cat3":" ","organizati":"Metropolitan Transit Authority (MTA)","addrln1":"6433 26th Street","addrln2":" ","city":"CITY OF COMMERCE","state":" ","zip":" ","source":"Metropolitan Transportation Authority (MTA)","source_id":"COM","source_dat":"5\/3\/2011","display":"Y","last_updat":"12\/30\/1899 0:00:00","Latitude":33.98925976,"Longitude":-118.14000614},{"name":"Norwalk\/Santa Fe Springs Metrolink Station","label":"Norwalk\/Santa Fe Springs","cat2":"Metrolink Stations","cat1":"Transportation","cat3":" ","organizati":"Metropolitan Transit Authority (MTA)","addrln1":"12700 Imperial Highway","addrln2":" ","city":"NORWALK","state":" ","zip":" ","source":"Metropolitan Transportation Authority (MTA)","source_id":"NLK","source_dat":"5\/3\/2011","display":"Y","last_updat":"12\/30\/1899 0:00:00","Latitude":33.91671842,"Longitude":-118.06069315},{"name":"Fullerton Metrolink Station","label":"Fullerton","cat2":"Metrolink Stations","cat1":"Transportation","cat3":" ","organizati":"Metropolitan Transit Authority (MTA)","addrln1":"120 E Santa Fe Avenue","addrln2":" ","city":"FULLERTON","state":" ","zip":" ","source":"Metropolitan Transportation Authority (MTA)","source_id":"FUL","source_dat":"5\/3\/2011","display":"Y","last_updat":"12\/30\/1899 0:00:00","Latitude":33.86897242,"Longitude":-117.92240318},{"name":"Anaheim Metrolink Station","label":"Anaheim","cat2":"Metrolink Stations","cat1":"Transportation","cat3":" ","organizati":"Metropolitan Transit Authority (MTA)","addrln1":"2150 Katella Avenue","addrln2":" ","city":"ANAHEIM","state":" ","zip":" ","source":"Metropolitan Transportation Authority (MTA)","source_id":"ANA","source_dat":"5\/3\/2011","display":"Y","last_updat":"12\/30\/1899 0:00:00","Latitude":33.80355943,"Longitude":-117.88227599},{"name":"Orange Metrolink Station","label":"Orange","cat2":"Metrolink Stations","cat1":"Transportation","cat3":" ","organizati":"Metropolitan Transit Authority (MTA)","addrln1":"194 N. Atchison Street","addrln2":" ","city":"ORANGE","state":" ","zip":" ","source":"Metropolitan Transportation Authority (MTA)","source_id":"ORG","source_dat":"5\/3\/2011","display":"Y","last_updat":"12\/30\/1899 0:00:00","Latitude":33.78821538,"Longitude":-117.8572028},{"name":"Santa Ana Metrolink Station","label":"Santa Ana","cat2":"Metrolink Stations","cat1":"Transportation","cat3":" ","organizati":"Metropolitan Transit Authority (MTA)","addrln1":"1000 E. Santa Ana Blvd","addrln2":" ","city":"SQUIRREL MTN VALLEY","state":" ","zip":" ","source":"Metropolitan Transportation Authority (MTA)","source_id":"SNA","source_dat":"5\/3\/2011","display":"Y","last_updat":"12\/30\/1899 0:00:00","Latitude":33.75203131,"Longitude":-117.8562462},{"name":"Irvine Metrolink Station","label":"Irvine","cat2":"Metrolink Stations","cat1":"Transportation","cat3":" ","organizati":"Metropolitan Transit Authority (MTA)","addrln1":"15215 Barranca Parkway","addrln2":" ","city":"IRVINE","state":" ","zip":" ","source":"Metropolitan Transportation Authority (MTA)","source_id":"IRV","source_dat":"5\/3\/2011","display":"Y","last_updat":"12\/30\/1899 0:00:00","Latitude":33.65671856,"Longitude":-117.73319813},{"name":"San Juan Capistrano Metrolink Station","label":"San Juan Capistrano","cat2":"Metrolink Stations","cat1":"Transportation","cat3":" ","organizati":"Metropolitan Transit Authority (MTA)","addrln1":"26701 Verdugo Street","addrln2":" ","city":"SAN JUAN CAPISTRANO","state":" ","zip":" ","source":"Metropolitan Transportation Authority (MTA)","source_id":"SNC","source_dat":"5\/3\/2011","display":"Y","last_updat":"12\/30\/1899 0:00:00","Latitude":33.5017495,"Longitude":-117.66349815},{"name":"San Clemente Metrolink Station","label":"San Clemente","cat2":"Metrolink Stations","cat1":"Transportation","cat3":" ","organizati":"Metropolitan Transit Authority (MTA)","addrln1":"1850 Avenida Estacion","addrln2":" ","city":"SAN CLEMENTE","state":" ","zip":" ","source":"Metropolitan Transportation Authority (MTA)","source_id":"SCT","source_dat":"5\/3\/2011","display":"Y","last_updat":"12\/30\/1899 0:00:00","Latitude":33.43197233,"Longitude":-117.63257627},{"name":"Oceanside Metrolink Station","label":"Oceanside","cat2":"Metrolink Stations","cat1":"Transportation","cat3":" ","organizati":"Metropolitan Transit Authority (MTA)","addrln1":"235 S. Tremont Avenue","addrln2":" ","city":"COUNTY","state":" ","zip":" ","source":"Metropolitan Transportation Authority (MTA)","source_id":"OSD","source_dat":"5\/3\/2011","display":"Y","last_updat":"12\/30\/1899 0:00:00","Latitude":33.19380081,"Longitude":-117.38067613},{"name":"San Clemente Pier Metrolink Station","label":"San Clemente Pier","cat2":"Metrolink Stations","cat1":"Transportation","cat3":" ","organizati":"Metropolitan Transit Authority (MTA)","addrln1":" ","addrln2":" ","city":"SAN CLEMENTE","state":" ","zip":" ","source":"Metropolitan Transportation Authority (MTA)","source_id":"SCP","source_dat":"5\/3\/2011","display":"Y","last_updat":"12\/30\/1899 0:00:00","Latitude":33.41946922,"Longitude":-117.61958367},{"name":"Tustin Metrolink Station","label":"Tustin","cat2":"Metrolink Stations","cat1":"Transportation","cat3":" ","organizati":"Metropolitan Transit Authority (MTA)","addrln1":"Edinger","addrln2":" ","city":"TUSTIN","state":" ","zip":" ","source":"Metropolitan Transportation Authority (MTA)","source_id":"TUS","source_dat":"5\/3\/2011","display":"Y","last_updat":"12\/30\/1899 0:00:00","Latitude":33.70755648,"Longitude":-117.80545431},{"name":"Laguna Niguel\/Mission Viejo Metrolink Station","label":"Laguna Niguel\/Mission Viejo","cat2":"Metrolink Stations","cat1":"Transportation","cat3":" ","organizati":"Metropolitan Transit Authority (MTA)","addrln1":" ","addrln2":" ","city":"LAGUNA NIGUEL","state":" ","zip":" ","source":"Metropolitan Transportation Authority (MTA)","source_id":"LAG","source_dat":"5\/3\/2011","display":"Y","last_updat":"12\/30\/1899 0:00:00","Latitude":33.55240935,"Longitude":-117.67432375},{"name":"Downtown Pomona Metrolink Station","label":"Downtown Pomona","cat2":"Metrolink Stations","cat1":"Transportation","cat3":" ","organizati":"Metropolitan Transit Authority (MTA)","addrln1":"100 E. Commercial Street","addrln2":" ","city":"POMONA","state":" ","zip":" ","source":"Metropolitan Transportation Authority (MTA)","source_id":"POD","source_dat":"5\/3\/2011","display":"Y","last_updat":"12\/30\/1899 0:00:00","Latitude":34.05920451,"Longitude":-117.7508623},{"name":"Industry Metrolink Station","label":"Industry","cat2":"Metrolink Stations","cat1":"Transportation","cat3":" ","organizati":"Metropolitan Transit Authority (MTA)","addrln1":"600 S. Brea Canyon Road","addrln2":" ","city":"CITY OF INDUSTRY","state":" ","zip":" ","source":"Metropolitan Transportation Authority (MTA)","source_id":"IND","source_dat":"5\/3\/2011","display":"Y","last_updat":"12\/30\/1899 0:00:00","Latitude":34.00824885,"Longitude":-117.84564848},{"name":"Commerce\/Montebello Metrolink Station","label":"Commerce\/Montebello","cat2":"Metrolink Stations","cat1":"Transportation","cat3":" ","organizati":"Metropolitan Transit Authority (MTA)","addrln1":"2000 Flotilla Street","addrln2":" ","city":"MONTEBELLO","state":" ","zip":" ","source":"Metropolitan Transportation Authority (MTA)","source_id":"MOC","source_dat":"8\/15\/2013","display":"Y","last_updat":"12\/30\/1899 0:00:00","Latitude":34.00693716,"Longitude":-118.1260795},{"name":"East Ontario Metrolink Station","label":"East Ontario","cat2":"Metrolink Stations","cat1":"Transportation","cat3":" ","organizati":"Metropolitan Transit Authority (MTA)","addrln1":"3330 E. Francis Street","addrln2":" ","city":"ONTARIO","state":" ","zip":" ","source":"Metropolitan Transportation Authority (MTA)","source_id":"ONT","source_dat":"5\/3\/2011","display":"Y","last_updat":"12\/30\/1899 0:00:00","Latitude":34.0392944,"Longitude":-117.57666763},{"name":"Pedley Metrolink Station","label":"Pedley","cat2":"Metrolink Stations","cat1":"Transportation","cat3":" ","organizati":"Metropolitan Transit Authority (MTA)","addrln1":"6001 Pedley Road","addrln2":" ","city":"PEDLEY","state":" ","zip":" ","source":"Metropolitan Transportation Authority (MTA)","source_id":"PED","source_dat":"5\/3\/2011","display":"Y","last_updat":"12\/30\/1899 0:00:00","Latitude":33.97705822,"Longitude":-117.47592385},{"name":"Riverside-Downtown Metrolink Station","label":"Riverside-Downtown","cat2":"Metrolink Stations","cat1":"Transportation","cat3":" ","organizati":"Metropolitan Transit Authority (MTA)","addrln1":"4066 Vine Street","addrln2":" ","city":"RIVERSIDE","state":" ","zip":" ","source":"Metropolitan Transportation Authority (MTA)","source_id":"RVS","source_dat":"5\/3\/2011","display":"Y","last_updat":"12\/30\/1899 0:00:00","Latitude":33.97532318,"Longitude":-117.36997647},{"name":"Claremont Metrolink Station","label":"Claremont","cat2":"Metrolink Stations","cat1":"Transportation","cat3":" ","organizati":"Metropolitan Transit Authority (MTA)","addrln1":"200 W. 1st Street","addrln2":" ","city":"CLAREMONT","state":" ","zip":" ","source":"Metropolitan Transportation Authority (MTA)","source_id":"CMT","source_dat":"5\/3\/2011","display":"Y","last_updat":"12\/30\/1899 0:00:00","Latitude":34.09421537,"Longitude":-117.7166731},{"name":"Pomona Metrolink Station","label":"Pomona","cat2":"Metrolink Stations","cat1":"Transportation","cat3":" ","organizati":"Metropolitan Transit Authority (MTA)","addrln1":"205 Santa Fe Street","addrln2":" ","city":"POMONA","state":" ","zip":" ","source":"Metropolitan Transportation Authority (MTA)","source_id":"POM","source_dat":"5\/3\/2011","display":"Y","last_updat":"12\/30\/1899 0:00:00","Latitude":34.09334663,"Longitude":-117.75379259},{"name":"Covina Metrolink Station","label":"Covina","cat2":"Metrolink Stations","cat1":"Transportation","cat3":" ","organizati":"Metropolitan Transit Authority (MTA)","addrln1":"600 N. Citrus Avenue","addrln2":" ","city":"COVINA","state":" ","zip":" ","source":"Metropolitan Transportation Authority (MTA)","source_id":"COV","source_dat":"5\/3\/2011","display":"Y","last_updat":"12\/30\/1899 0:00:00","Latitude":34.09241504,"Longitude":-117.88785917},{"name":"Baldwin Park Metrolink Station","label":"Baldwin Park","cat2":"Metrolink Stations","cat1":"Transportation","cat3":" ","organizati":"Metropolitan Transit Authority (MTA)","addrln1":"3825 Downing Avenue","addrln2":" ","city":"BALDWIN PARK","state":" ","zip":" ","source":"Metropolitan Transportation Authority (MTA)","source_id":"BWP","source_dat":"5\/3\/2011","display":"Y","last_updat":"12\/30\/1899 0:00:00","Latitude":34.08670847,"Longitude":-117.95694336},{"name":"El Monte Metrolink Station","label":"El Monte","cat2":"Metrolink Stations","cat1":"Transportation","cat3":" ","organizati":"Metropolitan Transit Authority (MTA)","addrln1":"10925 Railroad Street","addrln2":" ","city":"EL MONTE","state":" ","zip":" ","source":"Metropolitan Transportation Authority (MTA)","source_id":"EMT","source_dat":"5\/3\/2011","display":"Y","last_updat":"12\/30\/1899 0:00:00","Latitude":34.07702691,"Longitude":-118.03616635},{"name":"Cal State La Metrolink Station","label":"Cal State La","cat2":"Metrolink Stations","cat1":"Transportation","cat3":" ","organizati":"Metropolitan Transit Authority (MTA)","addrln1":"5150 State University Drive","addrln2":" ","city":"LOS ANGELES","state":" ","zip":" ","source":"Metropolitan Transportation Authority (MTA)","source_id":"CAL","source_dat":"5\/3\/2011","display":"Y","last_updat":"12\/30\/1899 0:00:00","Latitude":34.06309425,"Longitude":-118.16910062},{"name":"San Bernardino Metrolink Station","label":"San Bernardino","cat2":"Metrolink Stations","cat1":"Transportation","cat3":" ","organizati":"Metropolitan Transit Authority (MTA)","addrln1":"1204 W. 3rd Street","addrln2":" ","city":"SAN BERNARDINO","state":" ","zip":" ","source":"Metropolitan Transportation Authority (MTA)","source_id":"SNB","source_dat":"5\/3\/2011","display":"Y","last_updat":"12\/30\/1899 0:00:00","Latitude":34.10452442,"Longitude":-117.31008647},{"name":"Rialto Metrolink Station","label":"Rialto","cat2":"Metrolink Stations","cat1":"Transportation","cat3":" ","organizati":"Metropolitan Transit Authority (MTA)","addrln1":"261 S. Palm Avenue","addrln2":" ","city":"RIALTO","state":" ","zip":" ","source":"Metropolitan Transportation Authority (MTA)","source_id":"RIA","source_dat":"5\/3\/2011","display":"Y","last_updat":"12\/30\/1899 0:00:00","Latitude":34.0967463,"Longitude":-117.37164806},{"name":"Fontana Metrolink Station","label":"Fontana","cat2":"Metrolink Stations","cat1":"Transportation","cat3":" ","organizati":"Metropolitan Transit Authority (MTA)","addrln1":"16777 Orange Way","addrln2":" ","city":"FONTANA","state":" ","zip":" ","source":"Metropolitan Transportation Authority (MTA)","source_id":"FNT","source_dat":"5\/3\/2011","display":"Y","last_updat":"12\/30\/1899 0:00:00","Latitude":34.09509959,"Longitude":-117.43795395},{"name":"Upland Metrolink Station","label":"Upland","cat2":"Metrolink Stations","cat1":"Transportation","cat3":" ","organizati":"Metropolitan Transit Authority (MTA)","addrln1":"300 E. A Street","addrln2":" ","city":"COUNTY","state":" ","zip":" ","source":"Metropolitan Transportation Authority (MTA)","source_id":"UPL","source_dat":"5\/3\/2011","display":"Y","last_updat":"12\/30\/1899 0:00:00","Latitude":34.09446043,"Longitude":-117.64789291},{"name":"Rancho Cucamonga Metrolink Station","label":"Rancho Cucamonga","cat2":"Metrolink Stations","cat1":"Transportation","cat3":" ","organizati":"Metropolitan Transit Authority (MTA)","addrln1":"11208 Azusa Court","addrln2":" ","city":"RANCHO CUCAMONGA","state":" ","zip":" ","source":"Metropolitan Transportation Authority (MTA)","source_id":"RCM","source_dat":"5\/3\/2011","display":"Y","last_updat":"12\/30\/1899 0:00:00","Latitude":34.09187715,"Longitude":-117.55972193},{"name":"Montclair Metrolink Station","label":"Montclair","cat2":"Metrolink Stations","cat1":"Transportation","cat3":" ","organizati":"Metropolitan Transit Authority (MTA)","addrln1":"5091 Richton Street","addrln2":" ","city":"MONTCLAIR","state":" ","zip":" ","source":"Metropolitan Transportation Authority (MTA)","source_id":"MCL","source_dat":"5\/3\/2011","display":"Y","last_updat":"12\/30\/1899 0:00:00","Latitude":34.09388963,"Longitude":-117.6951753},{"name":"Speedway Metrolink Station","label":"Speedway","cat2":"Metrolink Stations","cat1":"Transportation","cat3":" ","organizati":"Metropolitan Transit Authority (MTA)","addrln1":"Calabash Avenue","addrln2":" ","city":"FONTANA","state":" ","zip":" ","source":"Metropolitan Transportation Authority (MTA)","source_id":"SPY","source_dat":"5\/3\/2011","display":"Y","last_updat":"12\/30\/1899 0:00:00","Latitude":34.09341562,"Longitude":-117.50162324},{"name":"La County Fairgrounds Metrolink Station","label":"La County Fairgrounds","cat2":"Metrolink Stations","cat1":"Transportation","cat3":" ","organizati":"Metropolitan Transit Authority (MTA)","addrln1":"Arrow Highway","addrln2":" ","city":"POMONA","state":" ","zip":" ","source":"Metropolitan Transportation Authority (MTA)","source_id":"LCF","source_dat":"5\/3\/2011","display":"Y","last_updat":"12\/30\/1899 0:00:00","Latitude":34.09588911,"Longitude":-117.76785269},{"name":"Lancaster Metrolink Station","label":"Lancaster","cat2":"Metrolink Stations","cat1":"Transportation","cat3":" ","organizati":"Metropolitan Transit Authority (MTA)","addrln1":"44812 Sierra Hwy","addrln2":" ","city":"LANCASTER","state":" ","zip":" ","source":"Metropolitan Transportation Authority (MTA)","source_id":"LAN","source_dat":"5\/3\/2011","display":"Y","last_updat":"12\/30\/1899 0:00:00","Latitude":34.69685014,"Longitude":-118.13627068},{"name":"Vincent Grade\/Acton Metrolink Station","label":"Vincent Grade\/Acton","cat2":"Metrolink Stations","cat1":"Transportation","cat3":" ","organizati":"Metropolitan Transit Authority (MTA)","addrln1":"550 W. Sierra Hwy","addrln2":" ","city":"COUNTY","state":" ","zip":" ","source":"Metropolitan Transportation Authority (MTA)","source_id":"VIN","source_dat":"5\/3\/2011","display":"Y","last_updat":"12\/30\/1899 0:00:00","Latitude":34.49677998,"Longitude":-118.1204337},{"name":"Santa Clarita Metrolink Station","label":"Santa Clarita","cat2":"Metrolink Stations","cat1":"Transportation","cat3":" ","organizati":"Metropolitan Transit Authority (MTA)","addrln1":"22122 Soledad Canyon Rd","addrln2":" ","city":"SANTA CLARITA","state":" ","zip":" ","source":"Metropolitan Transportation Authority (MTA)","source_id":"SCR","source_dat":"5\/3\/2011","display":"Y","last_updat":"12\/30\/1899 0:00:00","Latitude":34.41403711,"Longitude":-118.52531994},{"name":"Princessa Metrolink Station","label":"Princessa","cat2":"Metrolink Stations","cat1":"Transportation","cat3":" ","organizati":"Metropolitan Transit Authority (MTA)","addrln1":"19201 Via Princessa","addrln2":" ","city":"SANTA CLARITA","state":" ","zip":" ","source":"Metropolitan Transportation Authority (MTA)","source_id":"VPR","source_dat":"5\/3\/2011","display":"Y","last_updat":"12\/30\/1899 0:00:00","Latitude":34.408215,"Longitude":-118.46893245},{"name":"Sylmar\/San Fernando Metrolink Station","label":"Sylmar\/San Fernando","cat2":"Metrolink Stations","cat1":"Transportation","cat3":" ","organizati":"Metropolitan Transit Authority (MTA)","addrln1":"12219 Frank Modugno Drive","addrln2":" ","city":"LOS ANGELES","state":" ","zip":" ","source":"Metropolitan Transportation Authority (MTA)","source_id":"SYL","source_dat":"5\/3\/2011","display":"Y","last_updat":"12\/30\/1899 0:00:00","Latitude":34.29230174,"Longitude":-118.44944236},{"name":"Downtown Burbank Metrolink Station","label":"Downtown Burbank","cat2":"Metrolink Stations","cat1":"Transportation","cat3":" ","organizati":"Metropolitan Transit Authority (MTA)","addrln1":"201 N. Front Street","addrln2":" ","city":"BURBANK","state":" ","zip":" ","source":"Metropolitan Transportation Authority (MTA)","source_id":"BUR","source_dat":"6\/9\/2014","display":"Y","last_updat":"12\/30\/1899 0:00:00","Latitude":34.178693,"Longitude":-118.31195659},{"name":"Glendale Metrolink Station","label":"Glendale","cat2":"Metrolink Stations","cat1":"Transportation","cat3":" ","organizati":"Metropolitan Transit Authority (MTA)","addrln1":"400 W. Cerritos Ave.","addrln2":" ","city":"GLENDALE","state":" ","zip":" ","source":"Metropolitan Transportation Authority (MTA)","source_id":"GDL","source_dat":"5\/3\/2011","display":"Y","last_updat":"12\/30\/1899 0:00:00","Latitude":34.12371548,"Longitude":-118.2585236},{"name":"Sun Valley Metrolink Station","label":"Sun Valley","cat2":"Metrolink Stations","cat1":"Transportation","cat3":" ","organizati":"Metropolitan Transit Authority (MTA)","addrln1":"San Fernando & Olinda","addrln2":" ","city":"LOS ANGELES","state":" ","zip":" ","source":"Metropolitan Transportation Authority (MTA)","source_id":"SUN","source_dat":"5\/3\/2011","display":"Y","last_updat":"12\/30\/1899 0:00:00","Latitude":34.22335626,"Longitude":-118.37416298},{"name":"Newhall Metrolink Station","label":"Newhall","cat2":"Metrolink Stations","cat1":"Transportation","cat3":" ","organizati":"Metropolitan Transit Authority (MTA)","addrln1":" ","addrln2":" ","city":"SANTA CLARITA","state":" ","zip":" ","source":"Metropolitan Transportation Authority (MTA)","source_id":"NHL","source_dat":"5\/3\/2011","display":"Y","last_updat":"12\/30\/1899 0:00:00","Latitude":34.38413894,"Longitude":-118.53046114},{"name":"Palmdale Metrolink Station","label":"Palmdale","cat2":"Metrolink Stations","cat1":"Transportation","cat3":" ","organizati":"Metropolitan Transit Authority (MTA)","addrln1":"39000 Clock Tower Plaza Drive","addrln2":" ","city":"LANCASTER","state":" ","zip":" ","source":"Metropolitan Transportation Authority (MTA)","source_id":"PLD","source_dat":"5\/3\/2011","display":"Y","last_updat":"12\/30\/1899 0:00:00","Latitude":34.58967787,"Longitude":-118.11931229},{"name":"Chatsworth Metrolink Station","label":"Chatsworth","cat2":"Metrolink Stations","cat1":"Transportation","cat3":" ","organizati":"Metropolitan Transit Authority (MTA)","addrln1":"21510 Devonshire Blvd","addrln2":" ","city":"CHATSWORTH","state":" ","zip":" ","source":"Metropolitan Transportation Authority (MTA)","source_id":"CWT","source_dat":"5\/3\/2011","display":"Y","last_updat":"12\/30\/1899 0:00:00","Latitude":34.25271715,"Longitude":-118.59932734},{"name":"Northridge Metrolink Station","label":"Northridge","cat2":"Metrolink Stations","cat1":"Transportation","cat3":" ","organizati":"Metropolitan Transit Authority (MTA)","addrln1":"8775 Wilbur Avenue","addrln2":" ","city":"LOS ANGELES","state":" ","zip":" ","source":"Metropolitan Transportation Authority (MTA)","source_id":"NTH","source_dat":"5\/3\/2011","display":"Y","last_updat":"12\/30\/1899 0:00:00","Latitude":34.23024346,"Longitude":-118.54570925},{"name":"Van Nuys Metrolink Station","label":"Van Nuys","cat2":"Metrolink Stations","cat1":"Transportation","cat3":" ","organizati":"Metropolitan Transit Authority (MTA)","addrln1":"7720 Van Nuys Blvd","addrln2":" ","city":"VAN NUYS","state":" ","zip":" ","source":"Metropolitan Transportation Authority (MTA)","source_id":"VNC","source_dat":"5\/3\/2011","display":"Y","last_updat":"12\/30\/1899 0:00:00","Latitude":34.21100224,"Longitude":-118.44699867},{"name":"Burbank Airport Metrolink Station","label":"Burbank Airport","cat2":"Metrolink Stations","cat1":"Transportation","cat3":" ","organizati":"Metropolitan Transit Authority (MTA)","addrln1":"3750 Empire Avenue","addrln2":" ","city":"BURBANK","state":" ","zip":" ","source":"Metropolitan Transportation Authority (MTA)","source_id":"BRA","source_dat":"5\/3\/2011","display":"Y","last_updat":"12\/30\/1899 0:00:00","Latitude":34.19273348,"Longitude":-118.35182858},{"name":"Moorpark Metrolink Station","label":"Moorpark","cat2":"Metrolink Stations","cat1":"Transportation","cat3":" ","organizati":"Metropolitan Transit Authority (MTA)","addrln1":"300 High Street","addrln2":" ","city":"MOORPARK","state":" ","zip":" ","source":"Metropolitan Transportation Authority (MTA)","source_id":"MPK","source_dat":"5\/3\/2011","display":"Y","last_updat":"12\/30\/1899 0:00:00","Latitude":34.28415538,"Longitude":-118.88414819},{"name":"Simi Valley Metrolink Station","label":"Simi Valley","cat2":"Metrolink Stations","cat1":"Transportation","cat3":" ","organizati":"Metropolitan Transit Authority (MTA)","addrln1":"5050 Los Angeles Avenue","addrln2":" ","city":"SIMI VALLEY","state":" ","zip":" ","source":"Metropolitan Transportation Authority (MTA)","source_id":"SIM","source_dat":"5\/3\/2011","display":"Y","last_updat":"12\/30\/1899 0:00:00","Latitude":34.2712782,"Longitude":-118.69789902},{"name":"Camarillo Metrolink Station","label":"Camarillo","cat2":"Metrolink Stations","cat1":"Transportation","cat3":" ","organizati":"Metropolitan Transit Authority (MTA)","addrln1":"30 Lewis Road","addrln2":" ","city":"CAMARILLO","state":" ","zip":" ","source":"Metropolitan Transportation Authority (MTA)","source_id":"CAM","source_dat":"5\/3\/2011","display":"Y","last_updat":"12\/30\/1899 0:00:00","Latitude":34.21665123,"Longitude":-119.03381227},{"name":"Oxnard Metrolink Station","label":"Oxnard","cat2":"Metrolink Stations","cat1":"Transportation","cat3":" ","organizati":"Metropolitan Transit Authority (MTA)","addrln1":"201 E. Fourth Street","addrln2":" ","city":"OXNARD","state":" ","zip":" ","source":"Metropolitan Transportation Authority (MTA)","source_id":"OXN","source_dat":"5\/3\/2011","display":"Y","last_updat":"12\/30\/1899 0:00:00","Latitude":34.19927031,"Longitude":-119.17629545},{"name":"Montalvo Metrolink Station","label":"Montalvo","cat2":"Metrolink Stations","cat1":"Transportation","cat3":" ","organizati":"Metropolitan Transit Authority (MTA)","addrln1":"Ventura Blvd.","addrln2":" ","city":"MONTALVO","state":" ","zip":" ","source":"Metropolitan Transportation Authority (MTA)","source_id":"MON","source_dat":"5\/3\/2011","display":"Y","last_updat":"12\/30\/1899 0:00:00","Latitude":34.25078946,"Longitude":-119.20500894},{"name":"Los Angeles Union Station","label":"Los Angeles Union Station","cat2":"Metrolink Stations","cat1":"Transportation","cat3":" ","organizati":" ","addrln1":"800 N Alameda St","addrln2":" ","city":"Los Angeles","state":"CA","zip":"90012","source":"211","source_id":" ","source_dat":"11\/1\/2010","display":"Y","last_updat":"12\/30\/1899 0:00:00","Latitude":34.05493605,"Longitude":-118.23750461},{"name":"VERDUGO","label":"Verdugo Park and Ride","cat2":"Park and Ride Locations","cat1":"Transportation","cat3":" ","organizati":"City","addrln1":"VERDUGO BLVD @ HILLDALE DR - SW QUAD SR 2 \/ I-210 IC","addrln2":" ","city":"La Canada","state":"CA","zip":"91011","source":"https:\/\/gisdata-caltrans.opendata.arcgis.com\/datasets\/72f31f3f87b0400e99703b879e511d13_0\/about","source_id":" ","source_dat":"2\/23\/2023","display":"Y","last_updat":"12\/30\/1899 0:00:00","Latitude":34.20556313,"Longitude":-118.2192528},{"name":"LAKEWOOD - WEST","label":"Lakewood - West Park and Ride","cat2":"Park and Ride Locations","cat1":"Transportation","cat3":" ","organizati":"State","addrln1":"9004 LAKEWOOD BLVD: NW QUAD I-5 \/ LAKEWOOD (SR 19) IC OFF VISTA DEL ROSA ST.","addrln2":" ","city":"Lakewood","state":"CA","zip":"90240","source":"https:\/\/gisdata-caltrans.opendata.arcgis.com\/datasets\/72f31f3f87b0400e99703b879e511d13_0\/about","source_id":" ","source_dat":"2\/23\/2023","display":"Y","last_updat":"12\/30\/1899 0:00:00","Latitude":33.95899315,"Longitude":-118.11165884},{"name":"UNITED METHODIST CHURCH","label":"United Methodist Church Park and Ride","cat2":"Park and Ride Locations","cat1":"Transportation","cat3":" ","organizati":"Private","addrln1":"718 S. AZUSA AVE","addrln2":" ","city":"West Covina","state":"CA","zip":"91791","source":"https:\/\/gisdata-caltrans.opendata.arcgis.com\/datasets\/72f31f3f87b0400e99703b879e511d13_0\/about","source_id":" ","source_dat":"2\/23\/2023","display":"Y","last_updat":"12\/30\/1899 0:00:00","Latitude":34.06175112,"Longitude":-117.90755487},{"name":"UNITED METHODIST CHURCH","label":"United Methodist Church Park and Ride","cat2":"Park and Ride Locations","cat1":"Transportation","cat3":" ","organizati":"Private","addrln1":"437 W. SAN BERNARDINO RD","addrln2":" ","city":"Covina","state":"CA","zip":"91723","source":"https:\/\/gisdata-caltrans.opendata.arcgis.com\/datasets\/72f31f3f87b0400e99703b879e511d13_0\/about","source_id":" ","source_dat":"2\/23\/2023","display":"Y","last_updat":"12\/30\/1899 0:00:00","Latitude":34.09065012,"Longitude":-117.89844587},{"name":"NEWHALL WEST","label":"Newhall West Park and Ride","cat2":"Park and Ride Locations","cat1":"Transportation","cat3":" ","organizati":"State","addrln1":"20516 W. SAN FERNANDO RD. - W OF SR 14","addrln2":" ","city":"Santa Clarita","state":"CA","zip":"91321","source":"https:\/\/gisdata-caltrans.opendata.arcgis.com\/datasets\/72f31f3f87b0400e99703b879e511d13_0\/about","source_id":" ","source_dat":"2\/23\/2023","display":"Y","last_updat":"12\/30\/1899 0:00:00","Latitude":34.36493612,"Longitude":-118.50707074},{"name":"NEWHALL EAST","label":"Newhall East Park and Ride","cat2":"Park and Ride Locations","cat1":"Transportation","cat3":" ","organizati":"State","addrln1":"20100 W SAN FERNANDO RD - (1260) E OF SR 14","addrln2":" ","city":"Santa Clarita","state":"CA","zip":"91321","source":"https:\/\/gisdata-caltrans.opendata.arcgis.com\/datasets\/72f31f3f87b0400e99703b879e511d13_0\/about","source_id":" ","source_dat":"2\/23\/2023","display":"Y","last_updat":"12\/30\/1899 0:00:00","Latitude":34.36465712,"Longitude":-118.50152574},{"name":"GOLDEN VALLEY","label":"Golden Valley Park and Ride","cat2":"Park and Ride Locations","cat1":"Transportation","cat3":" ","organizati":"State","addrln1":"SR 14 @ GOLDEN VALLEY ROAD (3 LOTS)","addrln2":" ","city":"Santa Clarita","state":"CA","zip":"91321","source":"https:\/\/gisdata-caltrans.opendata.arcgis.com\/datasets\/72f31f3f87b0400e99703b879e511d13_0\/about","source_id":" ","source_dat":"2\/23\/2023","display":"Y","last_updat":"12\/30\/1899 0:00:00","Latitude":34.39295612,"Longitude":-118.47332375},{"name":"PEARBLOSSOM","label":"Pearblossom Park and Ride","cat2":"Park and Ride Locations","cat1":"Transportation","cat3":" ","organizati":"State","addrln1":"SIERRA HIGHWAY","addrln2":" ","city":"Palmdale","state":"CA","zip":"93550","source":"https:\/\/gisdata-caltrans.opendata.arcgis.com\/datasets\/72f31f3f87b0400e99703b879e511d13_0\/about","source_id":" ","source_dat":"2\/23\/2023","display":"Y","last_updat":"12\/30\/1899 0:00:00","Latitude":34.51070909,"Longitude":-118.1101888},{"name":"AVE S AND GEIGER AVE.","label":"Ave S And Geiger Ave. Park and Ride","cat2":"Park and Ride Locations","cat1":"Transportation","cat3":" ","organizati":"State","addrln1":"E AVE S @ GEIGER AVE W OF SR 14","addrln2":" ","city":"Palmdale","state":"CA","zip":"93551","source":"https:\/\/gisdata-caltrans.opendata.arcgis.com\/datasets\/72f31f3f87b0400e99703b879e511d13_0\/about","source_id":" ","source_dat":"2\/23\/2023","display":"Y","last_updat":"12\/30\/1899 0:00:00","Latitude":34.55774108,"Longitude":-118.13826579},{"name":"AVE K @ SR 14","label":"Ave K @ SR 14 Park and Ride","cat2":"Park and Ride Locations","cat1":"Transportation","cat3":" ","organizati":"State","addrln1":"1601 W AVE K @ SR 14","addrln2":" ","city":"Lancaster","state":"CA","zip":"93534","source":"https:\/\/gisdata-caltrans.opendata.arcgis.com\/datasets\/72f31f3f87b0400e99703b879e511d13_0\/about","source_id":" ","source_dat":"2\/23\/2023","display":"Y","last_updat":"12\/30\/1899 0:00:00","Latitude":34.67514107,"Longitude":-118.15892577},{"name":"PATHFINDER ROAD","label":"Pathfinder Road Park and Ride","cat2":"Park and Ride Locations","cat1":"Transportation","cat3":" ","organizati":"State","addrln1":"PATHFINDER RD @ SR 57","addrln2":" ","city":"Diamond Bar","state":"CA","zip":"91765","source":"https:\/\/gisdata-caltrans.opendata.arcgis.com\/datasets\/72f31f3f87b0400e99703b879e511d13_0\/about","source_id":" ","source_dat":"2\/23\/2023","display":"Y","last_updat":"12\/30\/1899 0:00:00","Latitude":33.98458113,"Longitude":-117.84216589},{"name":"DIAMOND BAR WEST","label":"Diamond Bar West Park and Ride","cat2":"Park and Ride Locations","cat1":"Transportation","cat3":" ","organizati":"State","addrln1":"101 N DIAMOND BAR BLVD","addrln2":" ","city":"Diamond Bar","state":"CA","zip":"91765","source":"https:\/\/gisdata-caltrans.opendata.arcgis.com\/datasets\/72f31f3f87b0400e99703b879e511d13_0\/about","source_id":" ","source_dat":"2\/23\/2023","display":"Y","last_updat":"12\/30\/1899 0:00:00","Latitude":34.02392312,"Longitude":-117.81205189},{"name":"DIAMOND BAR EAST","label":"Diamond Bar East Park and Ride","cat2":"Park and Ride Locations","cat1":"Transportation","cat3":" ","organizati":"State","addrln1":"100 N DIAMOND BAR BLVD","addrln2":" ","city":"Diamond Bar","state":"CA","zip":"91765","source":"https:\/\/gisdata-caltrans.opendata.arcgis.com\/datasets\/72f31f3f87b0400e99703b879e511d13_0\/about","source_id":" ","source_dat":"2\/23\/2023","display":"Y","last_updat":"12\/30\/1899 0:00:00","Latitude":34.02441212,"Longitude":-117.81170289},{"name":"UNITED METHODIST CHURCH","label":"United Methodist Church Park and Ride","cat2":"Park and Ride Locations","cat1":"Transportation","cat3":" ","organizati":"Private","addrln1":"20801 LA PUENTE","addrln2":" ","city":"Walnut","state":"CA","zip":"91789","source":"https:\/\/gisdata-caltrans.opendata.arcgis.com\/datasets\/72f31f3f87b0400e99703b879e511d13_0\/about","source_id":" ","source_dat":"2\/23\/2023","display":"Y","last_updat":"12\/30\/1899 0:00:00","Latitude":34.02544812,"Longitude":-117.84905588},{"name":"KANAN ROAD","label":"Kanan Road Park and Ride","cat2":"Park and Ride Locations","cat1":"Transportation","cat3":" ","organizati":"State","addrln1":"29165 ROADSIDE DR - SE QUAD US 101 \/ Kanan RD IC","addrln2":" ","city":"Agoura Hills","state":"CA","zip":"91301","source":"https:\/\/gisdata-caltrans.opendata.arcgis.com\/datasets\/72f31f3f87b0400e99703b879e511d13_0\/about","source_id":" ","source_dat":"2\/23\/2023","display":"Y","last_updat":"12\/30\/1899 0:00:00","Latitude":34.14525916,"Longitude":-118.76035872},{"name":"AVIATION","label":"Aviation Park and Ride","cat2":"Park and Ride Locations","cat1":"Transportation","cat3":" ","organizati":"State","addrln1":"I-105 @ AVIATION BLVD - 0.5 MI W OF I-405 IC","addrln2":" ","city":"El Segundo","state":"CA","zip":"90045","source":"https:\/\/gisdata-caltrans.opendata.arcgis.com\/datasets\/72f31f3f87b0400e99703b879e511d13_0\/about","source_id":" ","source_dat":"2\/23\/2023","display":"Y","last_updat":"12\/30\/1899 0:00:00","Latitude":33.93022516,"Longitude":-118.3771478},{"name":"HAWTHORNE","label":"Hawthorne Park and Ride","cat2":"Park and Ride Locations","cat1":"Transportation","cat3":" ","organizati":"State","addrln1":"I-105 @ HAWTHORNE BLVD & 111 TH ST","addrln2":" ","city":"Hawthorne","state":"CA","zip":"90304","source":"https:\/\/gisdata-caltrans.opendata.arcgis.com\/datasets\/72f31f3f87b0400e99703b879e511d13_0\/about","source_id":" ","source_dat":"2\/23\/2023","display":"Y","last_updat":"12\/30\/1899 0:00:00","Latitude":33.93428416,"Longitude":-118.3532748},{"name":"CRENSHAW","label":"Crenshaw Park and Ride","cat2":"Park and Ride Locations","cat1":"Transportation","cat3":" ","organizati":"State","addrln1":"SW QUAD I-105 \/ CRENSHAW IC - OFF 120TH STREET","addrln2":" ","city":"Inglewood","state":"CA","zip":"90303","source":"https:\/\/gisdata-caltrans.opendata.arcgis.com\/datasets\/72f31f3f87b0400e99703b879e511d13_0\/about","source_id":" ","source_dat":"2\/23\/2023","display":"Y","last_updat":"12\/30\/1899 0:00:00","Latitude":33.92412516,"Longitude":-118.32842081},{"name":"VERMONT AVE.","label":"Vermont Ave. Park and Ride","cat2":"Park and Ride Locations","cat1":"Transportation","cat3":" ","organizati":"State","addrln1":"NW QUAD I-105 \/ VERMONT AVE IC","addrln2":" ","city":"Athens","state":"CA","zip":"90044","source":"https:\/\/gisdata-caltrans.opendata.arcgis.com\/datasets\/72f31f3f87b0400e99703b879e511d13_0\/about","source_id":" ","source_dat":"2\/23\/2023","display":"Y","last_updat":"12\/30\/1899 0:00:00","Latitude":33.93007416,"Longitude":-118.29208281},{"name":"CENTURY \/ HARBOR","label":"Century \/ Harbor Park and Ride","cat2":"Park and Ride Locations","cat1":"Transportation","cat3":" ","organizati":"State","addrln1":"I-105 \/ I-110 JCT - 117 TH ST & FIGUEROA ST","addrln2":" ","city":"Los Angeles","state":"CA","zip":"90061","source":"https:\/\/gisdata-caltrans.opendata.arcgis.com\/datasets\/72f31f3f87b0400e99703b879e511d13_0\/about","source_id":" ","source_dat":"2\/23\/2023","display":"Y","last_updat":"12\/30\/1899 0:00:00","Latitude":33.92823516,"Longitude":-118.28240782},{"name":"AVALON","label":"Avalon Park and Ride","cat2":"Park and Ride Locations","cat1":"Transportation","cat3":" ","organizati":"State","addrln1":"I-105 @ AVALON BLVD","addrln2":" ","city":"Los Angeles","state":"CA","zip":"90059","source":"https:\/\/gisdata-caltrans.opendata.arcgis.com\/datasets\/72f31f3f87b0400e99703b879e511d13_0\/about","source_id":" ","source_dat":"2\/23\/2023","display":"Y","last_updat":"12\/30\/1899 0:00:00","Latitude":33.92817316,"Longitude":-118.26292982},{"name":"WILLOWBROOK","label":"Willowbrook Park and Ride","cat2":"Park and Ride Locations","cat1":"Transportation","cat3":" ","organizati":"State","addrln1":"NE & SW QUADS OF I-105 \/ WILMINGTON AVE IC","addrln2":" ","city":"Willowbrook","state":"CA","zip":"90059","source":"https:\/\/gisdata-caltrans.opendata.arcgis.com\/datasets\/72f31f3f87b0400e99703b879e511d13_0\/about","source_id":" ","source_dat":"2\/23\/2023","display":"Y","last_updat":"12\/30\/1899 0:00:00","Latitude":33.92765716,"Longitude":-118.23931582},{"name":"LONG BEACH BLVD.","label":"Long Beach Blvd. Park and Ride","cat2":"Park and Ride Locations","cat1":"Transportation","cat3":" ","organizati":"State","addrln1":"I-105 \/ LONG BEACH BLVD IC","addrln2":" ","city":"Lynwood","state":"CA","zip":"90262","source":"https:\/\/gisdata-caltrans.opendata.arcgis.com\/datasets\/72f31f3f87b0400e99703b879e511d13_0\/about","source_id":" ","source_dat":"2\/23\/2023","display":"Y","last_updat":"12\/30\/1899 0:00:00","Latitude":33.92494616,"Longitude":-118.20995783},{"name":"LAKEWOOD BLVD.","label":"Lakewood Blvd. Park and Ride","cat2":"Park and Ride Locations","cat1":"Transportation","cat3":" ","organizati":"State","addrln1":"12747 LAKEWOOD BLVD (SR 19) - @ I-105 \/ LAKEWOOD BLVD IC","addrln2":" ","city":"Downey","state":"CA","zip":"90242","source":"https:\/\/gisdata-caltrans.opendata.arcgis.com\/datasets\/72f31f3f87b0400e99703b879e511d13_0\/about","source_id":" ","source_dat":"2\/23\/2023","display":"Y","last_updat":"12\/30\/1899 0:00:00","Latitude":33.91238815,"Longitude":-118.14142184},{"name":"I-105 TERMINATION","label":"I-105 Termination Park and Ride","cat2":"Park and Ride Locations","cat1":"Transportation","cat3":" ","organizati":"State","addrln1":"12730 HOXIE AVE 0.25 MI W OF STUDEBAKER \/ I-105 INT SE QUAD OF I-105 \/ I-605 IC","addrln2":" ","city":"Norwalk","state":"CA","zip":"90650","source":"https:\/\/gisdata-caltrans.opendata.arcgis.com\/datasets\/72f31f3f87b0400e99703b879e511d13_0\/about","source_id":" ","source_dat":"2\/23\/2023","display":"Y","last_updat":"12\/30\/1899 0:00:00","Latitude":33.91369515,"Longitude":-118.10350785},{"name":"SAN PEDRO II","label":"San Pedro II Park and Ride","cat2":"Park and Ride Locations","cat1":"Transportation","cat3":" ","organizati":"State","addrln1":"515 N BEACON - @ N HARBOR BLVD","addrln2":" ","city":"San Pedro","state":"CA","zip":"90731","source":"https:\/\/gisdata-caltrans.opendata.arcgis.com\/datasets\/72f31f3f87b0400e99703b879e511d13_0\/about","source_id":" ","source_dat":"2\/23\/2023","display":"Y","last_updat":"12\/30\/1899 0:00:00","Latitude":33.74721518,"Longitude":-118.28070783},{"name":"SAN PEDRO","label":"San Pedro Park and Ride","cat2":"Park and Ride Locations","cat1":"Transportation","cat3":" ","organizati":"State","addrln1":"610 CHANNEL ST \/ BATTERY ST \/ GAFFEY ST - 0.4 MI N I-110 \/ SR 47 IC","addrln2":" ","city":"San Pedro","state":"CA","zip":"90731","source":"https:\/\/gisdata-caltrans.opendata.arcgis.com\/datasets\/72f31f3f87b0400e99703b879e511d13_0\/about","source_id":" ","source_dat":"2\/23\/2023","display":"Y","last_updat":"12\/30\/1899 0:00:00","Latitude":33.75396518,"Longitude":-118.29117783},{"name":"HARBOR PARK","label":"Harbor Park Park and Ride","cat2":"Park and Ride Locations","cat1":"Transportation","cat3":" ","organizati":"State","addrln1":"1345 W PACIFIC COAST HWY - NE QUAD I-110 \/ PCH IC","addrln2":" ","city":"Wilmington","state":"CA","zip":"90744","source":"https:\/\/gisdata-caltrans.opendata.arcgis.com\/datasets\/72f31f3f87b0400e99703b879e511d13_0\/about","source_id":" ","source_dat":"2\/23\/2023","display":"Y","last_updat":"12\/30\/1899 0:00:00","Latitude":33.79105018,"Longitude":-118.28067483},{"name":"CARSON","label":"Carson Park and Ride","cat2":"Park and Ride Locations","cat1":"Transportation","cat3":" ","organizati":"State","addrln1":"NW QUAD I-110 \/ W CARSON ST INT","addrln2":" ","city":"Los Angeles","state":"CA","zip":"90501","source":"https:\/\/gisdata-caltrans.opendata.arcgis.com\/datasets\/72f31f3f87b0400e99703b879e511d13_0\/about","source_id":" ","source_dat":"2\/23\/2023","display":"Y","last_updat":"12\/30\/1899 0:00:00","Latitude":33.83214817,"Longitude":-118.28801082},{"name":"HARBOR GATEWAY TRANSIT CENTER","label":"Harbor Gateway Transit Center Park and Ride","cat2":"Park and Ride Locations","cat1":"Transportation","cat3":" ","organizati":"State","addrln1":"SW QUAD I-110 \/ SR 91 IC - OFF 182ND STREET","addrln2":" ","city":"Los Angeles","state":"CA","zip":"90248","source":"https:\/\/gisdata-caltrans.opendata.arcgis.com\/datasets\/72f31f3f87b0400e99703b879e511d13_0\/about","source_id":" ","source_dat":"2\/23\/2023","display":"Y","last_updat":"12\/30\/1899 0:00:00","Latitude":33.87013817,"Longitude":-118.28744082},{"name":"ROSECRANS","label":"Rosecrans Park and Ride","cat2":"Park and Ride Locations","cat1":"Transportation","cat3":" ","organizati":"State","addrln1":"SE QUAD I-110 \/ ROSECRANS AVE IC","addrln2":" ","city":"Los Angeles","state":"CA","zip":"90248","source":"https:\/\/gisdata-caltrans.opendata.arcgis.com\/datasets\/72f31f3f87b0400e99703b879e511d13_0\/about","source_id":" ","source_dat":"2\/23\/2023","display":"Y","last_updat":"12\/30\/1899 0:00:00","Latitude":33.90155516,"Longitude":-118.28574082},{"name":"MANCHESTER","label":"Manchester Park and Ride","cat2":"Park and Ride Locations","cat1":"Transportation","cat3":" ","organizati":"State","addrln1":"NW & SE QUADS I-110 \/ MANCHESTER AVE IC","addrln2":" ","city":"Los Angeles","state":"CA","zip":"90044","source":"https:\/\/gisdata-caltrans.opendata.arcgis.com\/datasets\/72f31f3f87b0400e99703b879e511d13_0\/about","source_id":" ","source_dat":"2\/23\/2023","display":"Y","last_updat":"12\/30\/1899 0:00:00","Latitude":33.96012116,"Longitude":-118.28079981},{"name":"SLAUSON","label":"Slauson Park and Ride","cat2":"Park and Ride Locations","cat1":"Transportation","cat3":" ","organizati":"State","addrln1":"SW & SE QUAD I-110 \/ SLAUSON AVENUE IC","addrln2":" ","city":"Los Angeles","state":"CA","zip":"90003","source":"https:\/\/gisdata-caltrans.opendata.arcgis.com\/datasets\/72f31f3f87b0400e99703b879e511d13_0\/about","source_id":" ","source_dat":"2\/23\/2023","display":"Y","last_updat":"12\/30\/1899 0:00:00","Latitude":33.98865515,"Longitude":-118.28060781},{"name":"CHATSWORTH","label":"Chatsworth Park and Ride","cat2":"Park and Ride Locations","cat1":"Transportation","cat3":" ","organizati":"State","addrln1":"15550 CHATSWORTH STREET - SE QUAD I-405 \/ SR 118 IC","addrln2":" ","city":"Granda Hills","state":"CA","zip":"91345","source":"https:\/\/gisdata-caltrans.opendata.arcgis.com\/datasets\/72f31f3f87b0400e99703b879e511d13_0\/about","source_id":" ","source_dat":"2\/23\/2023","display":"Y","last_updat":"12\/30\/1899 0:00:00","Latitude":34.26469513,"Longitude":-118.47057576},{"name":"PORTER RANCH","label":"Porter Ranch Park and Ride","cat2":"Park and Ride Locations","cat1":"Transportation","cat3":" ","organizati":"State","addrln1":"SW QUAD SR 118 \/ PORTER RANCH DR. IC","addrln2":" ","city":"Chatsworth","state":"CA","zip":"91311","source":"https:\/\/gisdata-caltrans.opendata.arcgis.com\/datasets\/72f31f3f87b0400e99703b879e511d13_0\/about","source_id":" ","source_dat":"2\/23\/2023","display":"Y","last_updat":"12\/30\/1899 0:00:00","Latitude":34.27239514,"Longitude":-118.56968574},{"name":"GLENDALE","label":"Glendale Park and Ride","cat2":"Park and Ride Locations","cat1":"Transportation","cat3":" ","organizati":"State","addrln1":"SW QUAD SR 134 \/ SR 2 IC - OFF E WILSON AVE","addrln2":" ","city":"Glendale","state":"CA","zip":"91206","source":"https:\/\/gisdata-caltrans.opendata.arcgis.com\/datasets\/72f31f3f87b0400e99703b879e511d13_0\/about","source_id":" ","source_dat":"2\/23\/2023","display":"Y","last_updat":"12\/30\/1899 0:00:00","Latitude":34.14741813,"Longitude":-118.22977781},{"name":"SR 170 \/ OXNARD","label":"SR 170 \/ Oxnard Park and Ride","cat2":"Park and Ride Locations","cat1":"Transportation","cat3":" ","organizati":"State","addrln1":"1200 OXNARD STREET - SE QUAD SR 170 \/ OXNARD ST. IC","addrln2":" ","city":"North Hollywood","state":"CA","zip":"91606","source":"https:\/\/gisdata-caltrans.opendata.arcgis.com\/datasets\/72f31f3f87b0400e99703b879e511d13_0\/about","source_id":" ","source_dat":"2\/23\/2023","display":"Y","last_updat":"12\/30\/1899 0:00:00","Latitude":34.17924614,"Longitude":-118.39445078},{"name":"PAXTON","label":"Paxton Park and Ride","cat2":"Park and Ride Locations","cat1":"Transportation","cat3":" ","organizati":"State","addrln1":"12501 FOOTHILL BLVD @ PAXTON ST IC - SE QUAD SR 118 \/ I-210 IC","addrln2":" ","city":"Pacoima","state":"CA","zip":"91342","source":"https:\/\/gisdata-caltrans.opendata.arcgis.com\/datasets\/72f31f3f87b0400e99703b879e511d13_0\/about","source_id":" ","source_dat":"2\/23\/2023","display":"Y","last_updat":"12\/30\/1899 0:00:00","Latitude":34.28671713,"Longitude":-118.40736377},{"name":"LOWELL","label":"Lowell Park and Ride","cat2":"Park and Ride Locations","cat1":"Transportation","cat3":" ","organizati":"State","addrln1":"3930 LOWELL AVE - SW QUAD I-210 \/ HONOLULU AVE IC","addrln2":" ","city":"Glendale","state":"CA","zip":"91214","source":"https:\/\/gisdata-caltrans.opendata.arcgis.com\/datasets\/72f31f3f87b0400e99703b879e511d13_0\/about","source_id":" ","source_dat":"2\/23\/2023","display":"Y","last_updat":"12\/30\/1899 0:00:00","Latitude":34.22989013,"Longitude":-118.26605179},{"name":"SIERRA MADRE BLVD","label":"Sierra Madre Blvd Park and Ride","cat2":"Park and Ride Locations","cat1":"Transportation","cat3":" ","organizati":"State","addrln1":"I-210 \/ SIERRA MADRE BLVD IC - BTWN SIERRA MADRE, SAN GABRIEL & LA TIERRA","addrln2":" ","city":"Pasadena","state":"CA","zip":"91107","source":"https:\/\/gisdata-caltrans.opendata.arcgis.com\/datasets\/72f31f3f87b0400e99703b879e511d13_0\/about","source_id":" ","source_dat":"2\/23\/2023","display":"Y","last_updat":"12\/30\/1899 0:00:00","Latitude":34.15199612,"Longitude":-118.09472583},{"name":"GRAND AVE.","label":"Grand Ave. Park and Ride","cat2":"Park and Ride Locations","cat1":"Transportation","cat3":" ","organizati":"State","addrln1":"628 W BASELINE RD - NW QUAD I- 210 \/ GRAND AVE IC","addrln2":" ","city":"Glendora","state":"CA","zip":"91740","source":"https:\/\/gisdata-caltrans.opendata.arcgis.com\/datasets\/72f31f3f87b0400e99703b879e511d13_0\/about","source_id":" ","source_dat":"2\/23\/2023","display":"Y","last_updat":"12\/30\/1899 0:00:00","Latitude":34.12128512,"Longitude":-117.87585087},{"name":"LONE HILL","label":"Lone Hill Park and Ride","cat2":"Park and Ride Locations","cat1":"Transportation","cat3":" ","organizati":"State","addrln1":"1000 S LONE HILL AVE - SE QUAD I-210 \/ S LONE HILL AVE. IC (W OF SR 57 IC)","addrln2":" ","city":"Glendora","state":"CA","zip":"91740","source":"https:\/\/gisdata-caltrans.opendata.arcgis.com\/datasets\/72f31f3f87b0400e99703b879e511d13_0\/about","source_id":" ","source_dat":"2\/23\/2023","display":"Y","last_updat":"12\/30\/1899 0:00:00","Latitude":34.11996911,"Longitude":-117.82872088},{"name":"VIA VERDE \/ SR 57","label":"Via Verde \/ SR 57 Park and Ride","cat2":"Park and Ride Locations","cat1":"Transportation","cat3":" ","organizati":"State","addrln1":"105 VIA VERDE - NW QUAD SR 57 \/ VIA VERDE IC","addrln2":" ","city":"San Dimas","state":"CA","zip":"91773","source":"https:\/\/gisdata-caltrans.opendata.arcgis.com\/datasets\/72f31f3f87b0400e99703b879e511d13_0\/about","source_id":" ","source_dat":"2\/23\/2023","display":"Y","last_updat":"12\/30\/1899 0:00:00","Latitude":34.07784412,"Longitude":-117.81503588},{"name":"SKIRBALL AND MULHOLLAND","label":"Skirball And Mulholland Park and Ride","cat2":"Park and Ride Locations","cat1":"Transportation","cat3":" ","organizati":"State","addrln1":"2350 SKIRBALL CENTER DRIVE - NE OF SKIRBALL CENTER DR OC @ I-405","addrln2":" ","city":"Los Angeles","state":"CA","zip":"90049","source":"https:\/\/gisdata-caltrans.opendata.arcgis.com\/datasets\/72f31f3f87b0400e99703b879e511d13_0\/about","source_id":" ","source_dat":"2\/23\/2023","display":"Y","last_updat":"12\/30\/1899 0:00:00","Latitude":34.12336615,"Longitude":-118.47712277},{"name":"WASHINGTON AND FAIRFAX","label":"Washington And Fairfax Park and Ride","cat2":"Park and Ride Locations","cat1":"Transportation","cat3":" ","organizati":"City","addrln1":"NW corner of Fairfax Ave & Adams blvd","addrln2":" ","city":"Los Angeles","state":"CA","zip":"90016","source":"https:\/\/gisdata-caltrans.opendata.arcgis.com\/datasets\/72f31f3f87b0400e99703b879e511d13_0\/about","source_id":" ","source_dat":"2\/23\/2023","display":"Y","last_updat":"12\/30\/1899 0:00:00","Latitude":34.03291215,"Longitude":-118.37039679}]